[
  {
    "id": 1,
    "street": {
      "name": "העליה",
      "code": "5",
      "houseNumber": 49
    },
    "coordinates": {
      "wgs84": {
        "longitude": 34.77289953,
        "latitude": 32.05621086
      },
      "itm": {
        "x": 178703.16,
        "y": 662633.25
      }
    },
    "container": {
      "type": "מתקן טקסטיל",
      "count": 1,
      "uniqueId": "659-1"
    },
    "importDate": "27/12/2024 01:34:00"
  },
  {
    "id": 2,
    "street": {
      "name": "העליה",
      "code": "5",
      "houseNumber": 49
    },
    "coordinates": {
      "wgs84": {
        "longitude": 34.77289953,
        "latitude": 32.05621086
      },
      "itm": {
        "x": 178703.16,
        "y": 662633.25
      }
    },
    "container": {
      "type": "מתקן זכוכית (מונף)",
      "count": 1,
      "uniqueId": "659-2"
    },
    "importDate": "27/12/2024 01:34:00"
  },
  {
    "id": 3,
    "street": {
      "name": "יהודה הלוי",
      "code": "6",
      "houseNumber": 91
    },
    "coordinates": {
      "wgs84": {
        "longitude": 34.77765701,
        "latitude": 32.0650205
      },
      "itm": {
        "x": 179156.31,
        "y": 663608.46
      }
    },
    "container": {
      "type": "מתקן זכוכית (מונף)",
      "count": 1,
      "uniqueId": "659-3"
    },
    "importDate": "27/12/2024 01:34:00"
  },
  {
    "id": 4,
    "street": {
      "name": "לילינבלום",
      "code": "7",
      "houseNumber": 4
    },
    "coordinates": {
      "wgs84": {
        "longitude": 34.76740867,
        "latitude": 32.06179783
      },
      "itm": {
        "x": 178187.13,
        "y": 663254.76
      }
    },
    "container": {
      "type": "מתקן זכוכית (מונף)",
      "count": 1,
      "uniqueId": "659-4"
    },
    "importDate": "27/12/2024 01:34:00"
  },
  {
    "id": 5,
    "street": {
      "name": "לילינבלום",
      "code": "7",
      "houseNumber": 36
    },
    "coordinates": {
      "wgs84": {
        "longitude": 34.77138657,
        "latitude": 32.06226397
      },
      "itm": {
        "x": 178562.98,
        "y": 663305.03
      }
    },
    "container": {
      "type": "מתקן זכוכית (מונף)",
      "count": 1,
      "uniqueId": "659-5"
    },
    "importDate": "27/12/2024 01:34:00"
  },
  {
    "id": 6,
    "street": {
      "name": "לילינבלום",
      "code": "7",
      "houseNumber": 36
    },
    "coordinates": {
      "wgs84": {
        "longitude": 34.77138657,
        "latitude": 32.06226397
      },
      "itm": {
        "x": 178562.98,
        "y": 663305.03
      }
    },
    "container": {
      "type": "מתקן טקסטיל",
      "count": 1,
      "uniqueId": "659-6"
    },
    "importDate": "27/12/2024 01:34:00"
  },
  {
    "id": 7,
    "street": {
      "name": "רוטשילד",
      "code": "8",
      "houseNumber": 19
    },
    "coordinates": {
      "wgs84": {
        "longitude": 34.77164046,
        "latitude": 32.0631445
      },
      "itm": {
        "x": 178587.34,
        "y": 663402.58
      }
    },
    "container": {
      "type": "מתקן אריזות (סולארי)",
      "count": 1,
      "uniqueId": "659-7"
    },
    "importDate": "27/12/2024 01:34:00"
  },
  {
    "id": 8,
    "street": {
      "name": "הכרמל",
      "code": "9",
      "houseNumber": 12
    },
    "coordinates": {
      "wgs84": {
        "longitude": 34.76590073,
        "latitude": 32.06628394
      },
      "itm": {
        "x": 178046.75,
        "y": 663752.76
      }
    },
    "container": {
      "type": "קרטוניה",
      "count": 1,
      "uniqueId": "659-8"
    },
    "importDate": "27/12/2024 01:34:00"
  },
  {
    "id": 9,
    "street": {
      "name": "הכרמל",
      "code": "9",
      "houseNumber": 12
    },
    "coordinates": {
      "wgs84": {
        "longitude": 34.76590073,
        "latitude": 32.06628394
      },
      "itm": {
        "x": 178046.75,
        "y": 663752.76
      }
    },
    "container": {
      "type": "מיכלון / מיכל כתום (מרכז מחזור)",
      "count": 1,
      "uniqueId": "659-9"
    },
    "importDate": "27/12/2024 01:34:00"
  },
  {
    "id": 10,
    "street": {
      "name": "מונטיפיורי",
      "code": "10",
      "houseNumber": 20
    },
    "coordinates": {
      "wgs84": {
        "longitude": 34.77110722,
        "latitude": 32.06495093
      },
      "itm": {
        "x": 178537.79,
        "y": 663603.09
      }
    },
    "container": {
      "type": "מתקן אריזות (סולארי)",
      "count": 1,
      "uniqueId": "659-10"
    },
    "importDate": "27/12/2024 01:34:00"
  },
  {
    "id": 11,
    "street": {
      "name": "אחד העם",
      "code": "11",
      "houseNumber": 9
    },
    "coordinates": {
      "wgs84": {
        "longitude": 34.769577,
        "latitude": 32.063807
      },
      "itm": {
        "x": 178392.78,
        "y": 663476.78
      }
    },
    "container": {
      "type": "מתקן אלקטרוניקה",
      "count": 1,
      "uniqueId": "659-11"
    },
    "importDate": "27/12/2024 01:34:00"
  },
  {
    "id": 12,
    "street": {
      "name": "אחד העם",
      "code": "11",
      "houseNumber": 9
    },
    "coordinates": {
      "wgs84": {
        "longitude": 34.769577,
        "latitude": 32.063807
      },
      "itm": {
        "x": 178392.78,
        "y": 663476.78
      }
    },
    "container": {
      "type": "מתקן אלקטרוניקה",
      "count": 1,
      "uniqueId": "659-12"
    },
    "importDate": "27/12/2024 01:34:00"
  },
  {
    "id": 13,
    "street": {
      "name": "קלישר",
      "code": "12",
      "houseNumber": 7
    },
    "coordinates": {
      "wgs84": {
        "longitude": 34.76805531,
        "latitude": 32.06659245
      },
      "itm": {
        "x": 178250.34,
        "y": 663786.2
      }
    },
    "container": {
      "type": "מתקן זכוכית (מונף)",
      "count": 1,
      "uniqueId": "659-13"
    },
    "importDate": "27/12/2024 01:34:00"
  },
  {
    "id": 14,
    "street": {
      "name": "קלישר",
      "code": "12",
      "houseNumber": 7
    },
    "coordinates": {
      "wgs84": {
        "longitude": 34.76805531,
        "latitude": 32.06659245
      },
      "itm": {
        "x": 178250.34,
        "y": 663786.2
      }
    },
    "container": {
      "type": "מתקן טקסטיל",
      "count": 1,
      "uniqueId": "659-14"
    },
    "importDate": "27/12/2024 01:34:00"
  },
  {
    "id": 15,
    "street": {
      "name": "קלישר",
      "code": "12",
      "houseNumber": 7
    },
    "coordinates": {
      "wgs84": {
        "longitude": 34.76805531,
        "latitude": 32.06659245
      },
      "itm": {
        "x": 178250.34,
        "y": 663786.2
      }
    },
    "container": {
      "type": "מתקן אריזות (סולארי)",
      "count": 1,
      "uniqueId": "659-15"
    },
    "importDate": "27/12/2024 01:34:00"
  },
  {
    "id": 16,
    "street": {
      "name": "קלישר",
      "code": "12",
      "houseNumber": 7
    },
    "coordinates": {
      "wgs84": {
        "longitude": 34.76805531,
        "latitude": 32.06659245
      },
      "itm": {
        "x": 178250.34,
        "y": 663786.2
      }
    },
    "container": {
      "type": "מיכלון / מיכל כחול (מרכז מחזור)",
      "count": 1,
      "uniqueId": "659-16"
    },
    "importDate": "27/12/2024 01:34:00"
  },
  {
    "id": 17,
    "street": {
      "name": "קלישר",
      "code": "12",
      "houseNumber": 5
    },
    "coordinates": {
      "wgs84": {
        "longitude": 34.7679719,
        "latitude": 32.06678073
      },
      "itm": {
        "x": 178242.55,
        "y": 663807.11
      }
    },
    "container": {
      "type": "מתקן אלקטרוניקה",
      "count": 1,
      "uniqueId": "659-17"
    },
    "importDate": "27/12/2024 01:34:00"
  },
  {
    "id": 18,
    "street": {
      "name": "גרוזנברג",
      "code": "13",
      "houseNumber": 22
    },
    "coordinates": {
      "wgs84": {
        "longitude": 34.77031534,
        "latitude": 32.06666195
      },
      "itm": {
        "x": 178463.78,
        "y": 663793.1
      }
    },
    "container": {
      "type": "מתקן אריזות (סולארי)",
      "count": 1,
      "uniqueId": "659-18"
    },
    "importDate": "27/12/2024 01:34:00"
  },
  {
    "id": 19,
    "street": {
      "name": "מזא\"ה",
      "code": "14",
      "houseNumber": 14
    },
    "coordinates": {
      "wgs84": {
        "longitude": 34.77362275,
        "latitude": 32.06707247
      },
      "itm": {
        "x": 178776.27,
        "y": 663837.45
      }
    },
    "container": {
      "type": "מתקן זכוכית (מונף)",
      "count": 1,
      "uniqueId": "659-19"
    },
    "importDate": "27/12/2024 01:34:00"
  },
  {
    "id": 20,
    "street": {
      "name": "מזא\"ה",
      "code": "14",
      "houseNumber": 9
    },
    "coordinates": {
      "wgs84": {
        "longitude": 34.77262783,
        "latitude": 32.06736609
      },
      "itm": {
        "x": 178682.45,
        "y": 663870.36
      }
    },
    "container": {
      "type": "מתקן אלקטרוניקה",
      "count": 1,
      "uniqueId": "659-20"
    },
    "importDate": "27/12/2024 01:34:00"
  },
  {
    "id": 21,
    "street": {
      "name": "ברנר",
      "code": "17",
      "houseNumber": 5
    },
    "coordinates": {
      "wgs84": {
        "longitude": 34.77129866,
        "latitude": 32.06917166
      },
      "itm": {
        "x": 178557.75,
        "y": 664071.06
      }
    },
    "container": {
      "type": "מתקן זכוכית (מונף)",
      "count": 1,
      "uniqueId": "659-21"
    },
    "importDate": "27/12/2024 01:34:00"
  },
  {
    "id": 22,
    "street": {
      "name": "מרכז בעלי מלאכה",
      "code": "19",
      "houseNumber": 16
    },
    "coordinates": {
      "wgs84": {
        "longitude": 34.77275642,
        "latitude": 32.06989137
      },
      "itm": {
        "x": 178695.72,
        "y": 664150.35
      }
    },
    "container": {
      "type": "מתקן זכוכית (מונף)",
      "count": 1,
      "uniqueId": "659-22"
    },
    "importDate": "27/12/2024 01:34:00"
  },
  {
    "id": 23,
    "street": {
      "name": "מרכז בעלי מלאכה",
      "code": "19",
      "houseNumber": 16
    },
    "coordinates": {
      "wgs84": {
        "longitude": 34.77275642,
        "latitude": 32.06989137
      },
      "itm": {
        "x": 178695.72,
        "y": 664150.35
      }
    },
    "container": {
      "type": "מתקן אלקטרוניקה",
      "count": 1,
      "uniqueId": "659-23"
    },
    "importDate": "27/12/2024 01:34:00"
  },
  {
    "id": 24,
    "street": {
      "name": "בן יהודה",
      "code": "25",
      "houseNumber": 193
    },
    "coordinates": {
      "wgs84": {
        "longitude": 34.774376,
        "latitude": 32.091604
      },
      "itm": {
        "x": 178858.25,
        "y": 666557.5
      }
    },
    "container": {
      "type": "מתקן זכוכית (מונף)",
      "count": 1,
      "uniqueId": "659-24"
    },
    "importDate": "27/12/2024 01:34:00"
  },
  {
    "id": 25,
    "street": {
      "name": "בן יהודה",
      "code": "25",
      "houseNumber": 175
    },
    "coordinates": {
      "wgs84": {
        "longitude": 34.773894,
        "latitude": 32.08999067
      },
      "itm": {
        "x": 178812.03,
        "y": 666378.77
      }
    },
    "container": {
      "type": "מתקן זכוכית (מונף)",
      "count": 1,
      "uniqueId": "659-25"
    },
    "importDate": "27/12/2024 01:34:00"
  },
  {
    "id": 26,
    "street": {
      "name": "בן יהודה",
      "code": "25",
      "houseNumber": 83
    },
    "coordinates": {
      "wgs84": {
        "longitude": 34.77070889,
        "latitude": 32.08175762
      },
      "itm": {
        "x": 178507.68,
        "y": 665466.94
      }
    },
    "container": {
      "type": "מתקן זכוכית (מונף)",
      "count": 1,
      "uniqueId": "659-26"
    },
    "importDate": "27/12/2024 01:34:00"
  },
  {
    "id": 27,
    "street": {
      "name": "בוגרשוב",
      "code": "26",
      "houseNumber": 76
    },
    "coordinates": {
      "wgs84": {
        "longitude": 34.77308912,
        "latitude": 32.0750993
      },
      "itm": {
        "x": 178729.44,
        "y": 664727.74
      }
    },
    "container": {
      "type": "מתקן אריזות (סולארי)",
      "count": 1,
      "uniqueId": "659-27"
    },
    "importDate": "27/12/2024 01:34:00"
  },
  {
    "id": 28,
    "street": {
      "name": "פרנקל ידידיה",
      "code": "31",
      "houseNumber": 51
    },
    "coordinates": {
      "wgs84": {
        "longitude": 34.77208905,
        "latitude": 32.05712994
      },
      "itm": {
        "x": 178627.03,
        "y": 662735.46
      }
    },
    "container": {
      "type": "קרטוניה",
      "count": 1,
      "uniqueId": "659-28"
    },
    "importDate": "27/12/2024 01:34:00"
  },
  {
    "id": 29,
    "street": {
      "name": "פרנקל ידידיה",
      "code": "31",
      "houseNumber": 1
    },
    "coordinates": {
      "wgs84": {
        "longitude": 34.76726691,
        "latitude": 32.05715637
      },
      "itm": {
        "x": 178171.65,
        "y": 662740.11
      }
    },
    "container": {
      "type": "מתקן אריזות (סולארי)",
      "count": 1,
      "uniqueId": "659-29"
    },
    "importDate": "27/12/2024 01:34:00"
  },
  {
    "id": 30,
    "street": {
      "name": "פרנקל ידידיה",
      "code": "31",
      "houseNumber": 39
    },
    "coordinates": {
      "wgs84": {
        "longitude": 34.77073341,
        "latitude": 32.05728341
      },
      "itm": {
        "x": 178499.07,
        "y": 662752.96
      }
    },
    "container": {
      "type": "מתקן אריזות (סולארי)",
      "count": 1,
      "uniqueId": "659-30"
    },
    "importDate": "27/12/2024 01:34:00"
  },
  {
    "id": 31,
    "street": {
      "name": "פרנקל ידידיה",
      "code": "31",
      "houseNumber": 26
    },
    "coordinates": {
      "wgs84": {
        "longitude": 34.769508,
        "latitude": 32.057213
      },
      "itm": {
        "x": 178383.32,
        "y": 662745.59
      }
    },
    "container": {
      "type": "מתקן אריזות (סולארי)",
      "count": 1,
      "uniqueId": "659-31"
    },
    "importDate": "27/12/2024 01:34:00"
  },
  {
    "id": 32,
    "street": {
      "name": "פרנקל ידידיה",
      "code": "31",
      "houseNumber": 17
    },
    "coordinates": {
      "wgs84": {
        "longitude": 34.76847058,
        "latitude": 32.0572327
      },
      "itm": {
        "x": 178285.36,
        "y": 662748.15
      }
    },
    "container": {
      "type": "מתקן אריזות (סולארי)",
      "count": 1,
      "uniqueId": "659-32"
    },
    "importDate": "27/12/2024 01:34:00"
  },
  {
    "id": 33,
    "street": {
      "name": "פרץ י ל",
      "code": "36",
      "houseNumber": 30
    },
    "coordinates": {
      "wgs84": {
        "longitude": 34.77584284,
        "latitude": 32.05923935
      },
      "itm": {
        "x": 178982.45,
        "y": 662968.03
      }
    },
    "container": {
      "type": "מתקן זכוכית (מונף)",
      "count": 1,
      "uniqueId": "659-33"
    },
    "importDate": "27/12/2024 01:34:00"
  },
  {
    "id": 34,
    "street": {
      "name": "בני ברק",
      "code": "41",
      "houseNumber": 25
    },
    "coordinates": {
      "wgs84": {
        "longitude": 34.78042999,
        "latitude": 32.05988364
      },
      "itm": {
        "x": 179415.92,
        "y": 663037.84
      }
    },
    "container": {
      "type": "מתקן זכוכית (מונף)",
      "count": 1,
      "uniqueId": "659-34"
    },
    "importDate": "27/12/2024 01:34:00"
  },
  {
    "id": 35,
    "street": {
      "name": "לבונטין",
      "code": "45",
      "houseNumber": 21
    },
    "coordinates": {
      "wgs84": {
        "longitude": 34.77642146,
        "latitude": 32.06308286
      },
      "itm": {
        "x": 179038.79,
        "y": 663394.04
      }
    },
    "container": {
      "type": "מתקן זכוכית (מונף)",
      "count": 1,
      "uniqueId": "659-35"
    },
    "importDate": "27/12/2024 01:34:00"
  },
  {
    "id": 36,
    "street": {
      "name": "יפה בצלאל",
      "code": "53",
      "houseNumber": 14
    },
    "coordinates": {
      "wgs84": {
        "longitude": 34.77560522,
        "latitude": 32.06406307
      },
      "itm": {
        "x": 178962.14,
        "y": 663503.02
      }
    },
    "container": {
      "type": "מתקן זכוכית (מונף)",
      "count": 1,
      "uniqueId": "659-36"
    },
    "importDate": "27/12/2024 01:34:00"
  },
  {
    "id": 37,
    "street": {
      "name": "החשמונאים",
      "code": "69",
      "houseNumber": 25
    },
    "coordinates": {
      "wgs84": {
        "longitude": 34.77619577,
        "latitude": 32.0712939
      },
      "itm": {
        "x": 179021.09,
        "y": 664304.65
      }
    },
    "container": {
      "type": "מתקן אלקטרוניקה",
      "count": 1,
      "uniqueId": "659-37"
    },
    "importDate": "27/12/2024 01:34:00"
  },
  {
    "id": 38,
    "street": {
      "name": "המכבי",
      "code": "81",
      "houseNumber": 2
    },
    "coordinates": {
      "wgs84": {
        "longitude": 34.77176622,
        "latitude": 32.07145481
      },
      "itm": {
        "x": 178602.92,
        "y": 664324.07
      }
    },
    "container": {
      "type": "מתקן זכוכית (מונף)",
      "count": 1,
      "uniqueId": "659-38"
    },
    "importDate": "27/12/2024 01:34:00"
  },
  {
    "id": 39,
    "street": {
      "name": "פינסקר",
      "code": "88",
      "houseNumber": 27
    },
    "coordinates": {
      "wgs84": {
        "longitude": 34.7706632,
        "latitude": 32.07486156
      },
      "itm": {
        "x": 178500.29,
        "y": 664702.24
      }
    },
    "container": {
      "type": "מתקן זכוכית (מונף)",
      "count": 1,
      "uniqueId": "659-39"
    },
    "importDate": "27/12/2024 01:34:00"
  },
  {
    "id": 40,
    "street": {
      "name": "פרישמן",
      "code": "96",
      "houseNumber": 46
    },
    "coordinates": {
      "wgs84": {
        "longitude": 34.77463224,
        "latitude": 32.07965053
      },
      "itm": {
        "x": 178877.15,
        "y": 665231.88
      }
    },
    "container": {
      "type": "מתקן זכוכית (מונף)",
      "count": 1,
      "uniqueId": "659-40"
    },
    "importDate": "27/12/2024 01:34:00"
  },
  {
    "id": 41,
    "street": {
      "name": "פרישמן",
      "code": "96",
      "houseNumber": 44
    },
    "coordinates": {
      "wgs84": {
        "longitude": 34.77362712,
        "latitude": 32.07971965
      },
      "itm": {
        "x": 178782.29,
        "y": 665239.9
      }
    },
    "container": {
      "type": "מתקן אריזות (סולארי)",
      "count": 1,
      "uniqueId": "659-41"
    },
    "importDate": "27/12/2024 01:34:00"
  },
  {
    "id": 42,
    "street": {
      "name": "הרב קוק",
      "code": "113",
      "houseNumber": 46
    },
    "coordinates": {
      "wgs84": {
        "longitude": 34.76830034,
        "latitude": 32.07064174
      },
      "itm": {
        "x": 178275.3,
        "y": 664235.15
      }
    },
    "container": {
      "type": "מתקן אריזות (סולארי)",
      "count": 1,
      "uniqueId": "659-42"
    },
    "importDate": "27/12/2024 01:34:00"
  },
  {
    "id": 43,
    "street": {
      "name": "זרובבל",
      "code": "115",
      "houseNumber": 20
    },
    "coordinates": {
      "wgs84": {
        "longitude": 34.76646655,
        "latitude": 32.07007439
      },
      "itm": {
        "x": 178101.89,
        "y": 664172.89
      }
    },
    "container": {
      "type": "מתקן אריזות (סולארי)",
      "count": 1,
      "uniqueId": "659-43"
    },
    "importDate": "27/12/2024 01:34:00"
  },
  {
    "id": 44,
    "street": {
      "name": "דניאל",
      "code": "118",
      "houseNumber": 25
    },
    "coordinates": {
      "wgs84": {
        "longitude": 34.76594347,
        "latitude": 32.06803576
      },
      "itm": {
        "x": 178051.58,
        "y": 663947.01
      }
    },
    "container": {
      "type": "מתקן אלקטרוניקה",
      "count": 1,
      "uniqueId": "659-44"
    },
    "importDate": "27/12/2024 01:34:00"
  },
  {
    "id": 45,
    "street": {
      "name": "רבי עקיבא",
      "code": "121",
      "houseNumber": 15
    },
    "coordinates": {
      "wgs84": {
        "longitude": 34.76964063,
        "latitude": 32.06966958
      },
      "itm": {
        "x": 178401.41,
        "y": 664126.86
      }
    },
    "container": {
      "type": "מתקן אריזות (סולארי)",
      "count": 1,
      "uniqueId": "659-45"
    },
    "importDate": "27/12/2024 01:34:00"
  },
  {
    "id": 46,
    "street": {
      "name": "רבי עקיבא",
      "code": "121",
      "houseNumber": 8
    },
    "coordinates": {
      "wgs84": {
        "longitude": 34.76900788,
        "latitude": 32.07025518
      },
      "itm": {
        "x": 178341.93,
        "y": 664192.03
      }
    },
    "container": {
      "type": "מתקן אריזות (סולארי)",
      "count": 1,
      "uniqueId": "659-46"
    },
    "importDate": "27/12/2024 01:34:00"
  },
  {
    "id": 47,
    "street": {
      "name": "רבן גמליאל",
      "code": "122",
      "houseNumber": 16
    },
    "coordinates": {
      "wgs84": {
        "longitude": 34.76875097,
        "latitude": 32.06976703
      },
      "itm": {
        "x": 178317.45,
        "y": 664137.99
      }
    },
    "container": {
      "type": "מתקן אריזות (סולארי)",
      "count": 1,
      "uniqueId": "659-47"
    },
    "importDate": "27/12/2024 01:34:00"
  },
  {
    "id": 48,
    "street": {
      "name": "רבי מאיר",
      "code": "123",
      "houseNumber": 1
    },
    "coordinates": {
      "wgs84": {
        "longitude": 34.7673142,
        "latitude": 32.07060882
      },
      "itm": {
        "x": 178182.17,
        "y": 664231.85
      }
    },
    "container": {
      "type": "מתקן אריזות (סולארי)",
      "count": 1,
      "uniqueId": "659-48"
    },
    "importDate": "27/12/2024 01:34:00"
  },
  {
    "id": 49,
    "street": {
      "name": "האר\"י",
      "code": "124",
      "houseNumber": 1
    },
    "coordinates": {
      "wgs84": {
        "longitude": 34.76785565,
        "latitude": 32.0703233
      },
      "itm": {
        "x": 178233.16,
        "y": 664199.99
      }
    },
    "container": {
      "type": "מתקן אריזות (סולארי)",
      "count": 1,
      "uniqueId": "659-49"
    },
    "importDate": "27/12/2024 01:34:00"
  },
  {
    "id": 50,
    "street": {
      "name": "אלשיך",
      "code": "125",
      "houseNumber": 11
    },
    "coordinates": {
      "wgs84": {
        "longitude": 34.76829991,
        "latitude": 32.07019376
      },
      "itm": {
        "x": 178275.05,
        "y": 664185.47
      }
    },
    "container": {
      "type": "מתקן אריזות (סולארי)",
      "count": 1,
      "uniqueId": "659-50"
    },
    "importDate": "27/12/2024 01:34:00"
  },
  {
    "id": 51,
    "street": {
      "name": "בית יוסף",
      "code": "126",
      "houseNumber": 25
    },
    "coordinates": {
      "wgs84": {
        "longitude": 34.769573,
        "latitude": 32.070573
      },
      "itm": {
        "x": 178395.43,
        "y": 664227.07
      }
    },
    "container": {
      "type": "מתקן אריזות (סולארי)",
      "count": 1,
      "uniqueId": "659-51"
    },
    "importDate": "27/12/2024 01:34:00"
  },
  {
    "id": 52,
    "street": {
      "name": "נג'ארה ישראל",
      "code": "127",
      "houseNumber": 18
    },
    "coordinates": {
      "wgs84": {
        "longitude": 34.7696126,
        "latitude": 32.07012433
      },
      "itm": {
        "x": 178398.97,
        "y": 664177.3
      }
    },
    "container": {
      "type": "מתקן אריזות (סולארי)",
      "count": 1,
      "uniqueId": "659-52"
    },
    "importDate": "27/12/2024 01:34:00"
  },
  {
    "id": 53,
    "street": {
      "name": "נג'ארה ישראל",
      "code": "127",
      "houseNumber": 16
    },
    "coordinates": {
      "wgs84": {
        "longitude": 34.76937775,
        "latitude": 32.06998742
      },
      "itm": {
        "x": 178376.73,
        "y": 664162.2
      }
    },
    "container": {
      "type": "מתקן אריזות (סולארי)",
      "count": 1,
      "uniqueId": "659-53"
    },
    "importDate": "27/12/2024 01:34:00"
  },
  {
    "id": 54,
    "street": {
      "name": "גדרה",
      "code": "128",
      "houseNumber": 14
    },
    "coordinates": {
      "wgs84": {
        "longitude": 34.76917553,
        "latitude": 32.06943892
      },
      "itm": {
        "x": 178357.4,
        "y": 664101.45
      }
    },
    "container": {
      "type": "מתקן אריזות (סולארי)",
      "count": 1,
      "uniqueId": "659-54"
    },
    "importDate": "27/12/2024 01:34:00"
  },
  {
    "id": 55,
    "street": {
      "name": "התבור",
      "code": "131",
      "houseNumber": 2
    },
    "coordinates": {
      "wgs84": {
        "longitude": 34.76672197,
        "latitude": 32.06508652
      },
      "itm": {
        "x": 178123.76,
        "y": 663619.69
      }
    },
    "container": {
      "type": "מתקן זכוכית (מונף)",
      "count": 1,
      "uniqueId": "659-55"
    },
    "importDate": "27/12/2024 01:34:00"
  },
  {
    "id": 56,
    "street": {
      "name": "שבזי",
      "code": "145",
      "houseNumber": 22
    },
    "coordinates": {
      "wgs84": {
        "longitude": 34.76458073,
        "latitude": 32.06193895
      },
      "itm": {
        "x": 177920.14,
        "y": 663271.41
      }
    },
    "container": {
      "type": "מתקן אלקטרוניקה",
      "count": 1,
      "uniqueId": "659-56"
    },
    "importDate": "27/12/2024 01:34:00"
  },
  {
    "id": 57,
    "street": {
      "name": "רענן",
      "code": "170",
      "houseNumber": 15
    },
    "coordinates": {
      "wgs84": {
        "longitude": 34.768978,
        "latitude": 32.059425
      },
      "itm": {
        "x": 178334.26,
        "y": 662991.07
      }
    },
    "container": {
      "type": "קרטוניה",
      "count": 1,
      "uniqueId": "659-57"
    },
    "importDate": "27/12/2024 01:34:00"
  },
  {
    "id": 58,
    "street": {
      "name": "מרכלת",
      "code": "171",
      "houseNumber": 25
    },
    "coordinates": {
      "wgs84": {
        "longitude": 34.76876,
        "latitude": 32.058007
      },
      "itm": {
        "x": 178313.04,
        "y": 662833.91
      }
    },
    "container": {
      "type": "קרטוניה",
      "count": 1,
      "uniqueId": "659-58"
    },
    "importDate": "27/12/2024 01:34:00"
  },
  {
    "id": 59,
    "street": {
      "name": "מרכלת",
      "code": "171",
      "houseNumber": 19
    },
    "coordinates": {
      "wgs84": {
        "longitude": 34.76869119,
        "latitude": 32.05847149
      },
      "itm": {
        "x": 178306.75,
        "y": 662885.44
      }
    },
    "container": {
      "type": "קרטוניה",
      "count": 1,
      "uniqueId": "659-59"
    },
    "importDate": "27/12/2024 01:34:00"
  },
  {
    "id": 60,
    "street": {
      "name": "מזרחי",
      "code": "172",
      "houseNumber": 22
    },
    "coordinates": {
      "wgs84": {
        "longitude": 34.76942904,
        "latitude": 32.05858992
      },
      "itm": {
        "x": 178376.48,
        "y": 662898.31
      }
    },
    "container": {
      "type": "קרטוניה",
      "count": 1,
      "uniqueId": "659-60"
    },
    "importDate": "27/12/2024 01:34:00"
  },
  {
    "id": 61,
    "street": {
      "name": "מזרחי",
      "code": "172",
      "houseNumber": 11
    },
    "coordinates": {
      "wgs84": {
        "longitude": 34.76939149,
        "latitude": 32.05944691
      },
      "itm": {
        "x": 178373.32,
        "y": 662993.35
      }
    },
    "container": {
      "type": "קרטוניה",
      "count": 1,
      "uniqueId": "659-61"
    },
    "importDate": "27/12/2024 01:34:00"
  },
  {
    "id": 62,
    "street": {
      "name": "קישון אפרים",
      "code": "173",
      "houseNumber": 37
    },
    "coordinates": {
      "wgs84": {
        "longitude": 34.77005106,
        "latitude": 32.05794964
      },
      "itm": {
        "x": 178434.93,
        "y": 662827.08
      }
    },
    "container": {
      "type": "קרטוניה",
      "count": 1,
      "uniqueId": "659-62"
    },
    "importDate": "27/12/2024 01:34:00"
  },
  {
    "id": 63,
    "street": {
      "name": "קישון אפרים",
      "code": "173",
      "houseNumber": 27
    },
    "coordinates": {
      "wgs84": {
        "longitude": 34.769955,
        "latitude": 32.058632
      },
      "itm": {
        "x": 178426.17,
        "y": 662902.79
      }
    },
    "container": {
      "type": "קרטוניה",
      "count": 1,
      "uniqueId": "659-63"
    },
    "importDate": "27/12/2024 01:34:00"
  },
  {
    "id": 64,
    "street": {
      "name": "קישון אפרים",
      "code": "173",
      "houseNumber": 63
    },
    "coordinates": {
      "wgs84": {
        "longitude": 34.77018681,
        "latitude": 32.05637872
      },
      "itm": {
        "x": 178447.05,
        "y": 662652.84
      }
    },
    "container": {
      "type": "קרטוניה",
      "count": 1,
      "uniqueId": "659-64"
    },
    "importDate": "27/12/2024 01:34:00"
  },
  {
    "id": 65,
    "street": {
      "name": "קישון אפרים",
      "code": "173",
      "houseNumber": 63
    },
    "coordinates": {
      "wgs84": {
        "longitude": 34.77018681,
        "latitude": 32.05637872
      },
      "itm": {
        "x": 178447.05,
        "y": 662652.84
      }
    },
    "container": {
      "type": "מתקן אריזות (סולארי)",
      "count": 1,
      "uniqueId": "659-65"
    },
    "importDate": "27/12/2024 01:34:00"
  },
  {
    "id": 66,
    "street": {
      "name": "כפר גלעדי",
      "code": "174",
      "houseNumber": 47
    },
    "coordinates": {
      "wgs84": {
        "longitude": 34.77047511,
        "latitude": 32.05739824
      },
      "itm": {
        "x": 178474.73,
        "y": 662765.79
      }
    },
    "container": {
      "type": "מתקן אריזות (סולארי)",
      "count": 1,
      "uniqueId": "659-66"
    },
    "importDate": "27/12/2024 01:34:00"
  },
  {
    "id": 67,
    "street": {
      "name": "כפר גלעדי",
      "code": "174",
      "houseNumber": 29
    },
    "coordinates": {
      "wgs84": {
        "longitude": 34.77034339,
        "latitude": 32.05876355
      },
      "itm": {
        "x": 178462.9,
        "y": 662917.23
      }
    },
    "container": {
      "type": "קרטוניה",
      "count": 1,
      "uniqueId": "659-67"
    },
    "importDate": "27/12/2024 01:34:00"
  },
  {
    "id": 68,
    "street": {
      "name": "כפר גלעדי",
      "code": "174",
      "houseNumber": 39
    },
    "coordinates": {
      "wgs84": {
        "longitude": 34.77046169,
        "latitude": 32.05791024
      },
      "itm": {
        "x": 178473.69,
        "y": 662822.57
      }
    },
    "container": {
      "type": "קרטוניה",
      "count": 1,
      "uniqueId": "659-68"
    },
    "importDate": "27/12/2024 01:34:00"
  },
  {
    "id": 69,
    "street": {
      "name": "המשביר",
      "code": "175",
      "houseNumber": 7
    },
    "coordinates": {
      "wgs84": {
        "longitude": 34.771111,
        "latitude": 32.060192
      },
      "itm": {
        "x": 178536.03,
        "y": 663075.36
      }
    },
    "container": {
      "type": "קרטוניה",
      "count": 1,
      "uniqueId": "659-69"
    },
    "importDate": "27/12/2024 01:34:00"
  },
  {
    "id": 70,
    "street": {
      "name": "השוק",
      "code": "176",
      "houseNumber": 1
    },
    "coordinates": {
      "wgs84": {
        "longitude": 34.77164144,
        "latitude": 32.06029613
      },
      "itm": {
        "x": 178586.17,
        "y": 663086.72
      }
    },
    "container": {
      "type": "קרטוניה",
      "count": 1,
      "uniqueId": "659-70"
    },
    "importDate": "27/12/2024 01:34:00"
  },
  {
    "id": 71,
    "street": {
      "name": "זבולון",
      "code": "180",
      "houseNumber": 16
    },
    "coordinates": {
      "wgs84": {
        "longitude": 34.7727288,
        "latitude": 32.05942909
      },
      "itm": {
        "x": 178688.47,
        "y": 662990.19
      }
    },
    "container": {
      "type": "קרטוניה",
      "count": 1,
      "uniqueId": "659-71"
    },
    "importDate": "27/12/2024 01:34:00"
  },
  {
    "id": 72,
    "street": {
      "name": "החלוצים",
      "code": "181",
      "houseNumber": 24
    },
    "coordinates": {
      "wgs84": {
        "longitude": 34.7729633,
        "latitude": 32.05871083
      },
      "itm": {
        "x": 178710.29,
        "y": 662910.45
      }
    },
    "container": {
      "type": "קרטוניה",
      "count": 1,
      "uniqueId": "659-72"
    },
    "importDate": "27/12/2024 01:34:00"
  },
  {
    "id": 73,
    "street": {
      "name": "החלוצים",
      "code": "181",
      "houseNumber": 58
    },
    "coordinates": {
      "wgs84": {
        "longitude": 34.7721084,
        "latitude": 32.05622916
      },
      "itm": {
        "x": 178628.46,
        "y": 662635.56
      }
    },
    "container": {
      "type": "מתקן אריזות (סולארי)",
      "count": 1,
      "uniqueId": "659-73"
    },
    "importDate": "27/12/2024 01:34:00"
  },
  {
    "id": 74,
    "street": {
      "name": "החלוצים",
      "code": "181",
      "houseNumber": 58
    },
    "coordinates": {
      "wgs84": {
        "longitude": 34.7721084,
        "latitude": 32.05622916
      },
      "itm": {
        "x": 178628.46,
        "y": 662635.56
      }
    },
    "container": {
      "type": "מתקן אשפה (סולארי)",
      "count": 1,
      "uniqueId": "659-74"
    },
    "importDate": "27/12/2024 01:34:00"
  },
  {
    "id": 75,
    "street": {
      "name": "דיזנגוף",
      "code": "187",
      "houseNumber": 69
    },
    "coordinates": {
      "wgs84": {
        "longitude": 34.77462386,
        "latitude": 32.07616971
      },
      "itm": {
        "x": 178874.82,
        "y": 664845.89
      }
    },
    "container": {
      "type": "מתקן אריזות (סולארי)",
      "count": 1,
      "uniqueId": "659-75"
    },
    "importDate": "27/12/2024 01:34:00"
  },
  {
    "id": 76,
    "street": {
      "name": "דיזנגוף",
      "code": "187",
      "houseNumber": 199
    },
    "coordinates": {
      "wgs84": {
        "longitude": 34.77488363,
        "latitude": 32.0872321
      },
      "itm": {
        "x": 178904.24,
        "y": 666072.51
      }
    },
    "container": {
      "type": "מתקן זכוכית (מונף)",
      "count": 1,
      "uniqueId": "659-76"
    },
    "importDate": "27/12/2024 01:34:00"
  },
  {
    "id": 77,
    "street": {
      "name": "דיזנגוף",
      "code": "187",
      "houseNumber": 167
    },
    "coordinates": {
      "wgs84": {
        "longitude": 34.77418461,
        "latitude": 32.08411003
      },
      "itm": {
        "x": 178836.86,
        "y": 665726.56
      }
    },
    "container": {
      "type": "מתקן אריזות (סולארי)",
      "count": 1,
      "uniqueId": "659-77"
    },
    "importDate": "27/12/2024 01:34:00"
  },
  {
    "id": 78,
    "street": {
      "name": "דיזנגוף",
      "code": "187",
      "houseNumber": 279
    },
    "coordinates": {
      "wgs84": {
        "longitude": 34.7761168,
        "latitude": 32.09558343
      },
      "itm": {
        "x": 179024.33,
        "y": 666998.16
      }
    },
    "container": {
      "type": "מתקן זכוכית (מונף)",
      "count": 1,
      "uniqueId": "659-78"
    },
    "importDate": "27/12/2024 01:34:00"
  },
  {
    "id": 79,
    "street": {
      "name": "דיזנגוף",
      "code": "187",
      "houseNumber": 200
    },
    "coordinates": {
      "wgs84": {
        "longitude": 34.77521181,
        "latitude": 32.08631299
      },
      "itm": {
        "x": 178934.81,
        "y": 665970.48
      }
    },
    "container": {
      "type": "מתקן אלקטרוניקה",
      "count": 1,
      "uniqueId": "659-79"
    },
    "importDate": "27/12/2024 01:34:00"
  },
  {
    "id": 80,
    "street": {
      "name": "דיזנגוף",
      "code": "187",
      "houseNumber": 221
    },
    "coordinates": {
      "wgs84": {
        "longitude": 34.775542,
        "latitude": 32.089655
      },
      "itm": {
        "x": 178967.46,
        "y": 666340.96
      }
    },
    "container": {
      "type": "מתקן זכוכית (מונף)",
      "count": 1,
      "uniqueId": "659-80"
    },
    "importDate": "27/12/2024 01:34:00"
  },
  {
    "id": 81,
    "street": {
      "name": "יהושע בן נון",
      "code": "190",
      "houseNumber": 1
    },
    "coordinates": {
      "wgs84": {
        "longitude": 34.77933295,
        "latitude": 32.08610076
      },
      "itm": {
        "x": 179323.78,
        "y": 665945.47
      }
    },
    "container": {
      "type": "מתקן זכוכית (מונף)",
      "count": 1,
      "uniqueId": "659-81"
    },
    "importDate": "27/12/2024 01:34:00"
  },
  {
    "id": 82,
    "street": {
      "name": "יהושע בן נון",
      "code": "190",
      "houseNumber": 1
    },
    "coordinates": {
      "wgs84": {
        "longitude": 34.77933295,
        "latitude": 32.08610076
      },
      "itm": {
        "x": 179323.78,
        "y": 665945.47
      }
    },
    "container": {
      "type": "מתקן זכוכית (מונף)",
      "count": 1,
      "uniqueId": "659-82"
    },
    "importDate": "27/12/2024 01:34:00"
  },
  {
    "id": 83,
    "street": {
      "name": "ארלוזורוב",
      "code": "193",
      "houseNumber": 17
    },
    "coordinates": {
      "wgs84": {
        "longitude": 34.77409156,
        "latitude": 32.08731319
      },
      "itm": {
        "x": 178829.5,
        "y": 666081.79
      }
    },
    "container": {
      "type": "מתקן אלקטרוניקה",
      "count": 1,
      "uniqueId": "659-83"
    },
    "importDate": "27/12/2024 01:34:00"
  },
  {
    "id": 84,
    "street": {
      "name": "ז'בוטינסקי",
      "code": "194",
      "houseNumber": 85
    },
    "coordinates": {
      "wgs84": {
        "longitude": 34.78299083,
        "latitude": 32.08809927
      },
      "itm": {
        "x": 179669.98,
        "y": 666165.78
      }
    },
    "container": {
      "type": "מתקן טקסטיל",
      "count": 1,
      "uniqueId": "659-84"
    },
    "importDate": "27/12/2024 01:34:00"
  },
  {
    "id": 85,
    "street": {
      "name": "סוקולוב",
      "code": "196",
      "houseNumber": 42
    },
    "coordinates": {
      "wgs84": {
        "longitude": 34.77787202,
        "latitude": 32.0899755
      },
      "itm": {
        "x": 179187.56,
        "y": 666375.67
      }
    },
    "container": {
      "type": "מתקן זכוכית (מונף)",
      "count": 1,
      "uniqueId": "659-85"
    },
    "importDate": "27/12/2024 01:34:00"
  },
  {
    "id": 86,
    "street": {
      "name": "סוקולוב",
      "code": "196",
      "houseNumber": 42
    },
    "coordinates": {
      "wgs84": {
        "longitude": 34.77787202,
        "latitude": 32.0899755
      },
      "itm": {
        "x": 179187.56,
        "y": 666375.67
      }
    },
    "container": {
      "type": "מתקן טקסטיל",
      "count": 1,
      "uniqueId": "659-86"
    },
    "importDate": "27/12/2024 01:34:00"
  },
  {
    "id": 87,
    "street": {
      "name": "נורדאו",
      "code": "197",
      "houseNumber": 94
    },
    "coordinates": {
      "wgs84": {
        "longitude": 34.782445,
        "latitude": 32.091608
      },
      "itm": {
        "x": 179619.97,
        "y": 666555.06
      }
    },
    "container": {
      "type": "מתקן זכוכית (מונף)",
      "count": 1,
      "uniqueId": "659-87"
    },
    "importDate": "27/12/2024 01:34:00"
  },
  {
    "id": 88,
    "street": {
      "name": "ירמיהו הנביא",
      "code": "199",
      "houseNumber": 11
    },
    "coordinates": {
      "wgs84": {
        "longitude": 34.77512126,
        "latitude": 32.09492501
      },
      "itm": {
        "x": 178930.07,
        "y": 666925.5
      }
    },
    "container": {
      "type": "מתקן זכוכית (מונף)",
      "count": 1,
      "uniqueId": "659-88"
    },
    "importDate": "27/12/2024 01:34:00"
  },
  {
    "id": 89,
    "street": {
      "name": "אוסישקין",
      "code": "202",
      "houseNumber": 9
    },
    "coordinates": {
      "wgs84": {
        "longitude": 34.77864701,
        "latitude": 32.09538087
      },
      "itm": {
        "x": 179263.09,
        "y": 666974.79
      }
    },
    "container": {
      "type": "מתקן טקסטיל",
      "count": 1,
      "uniqueId": "659-89"
    },
    "importDate": "27/12/2024 01:34:00"
  },
  {
    "id": 90,
    "street": {
      "name": "בן גוריון",
      "code": "204",
      "houseNumber": 68
    },
    "coordinates": {
      "wgs84": {
        "longitude": 34.7769601,
        "latitude": 32.0830114
      },
      "itm": {
        "x": 179098.41,
        "y": 665603.74
      }
    },
    "container": {
      "type": "מתקן זכוכית (מונף)",
      "count": 1,
      "uniqueId": "659-90"
    },
    "importDate": "27/12/2024 01:34:00"
  },
  {
    "id": 91,
    "street": {
      "name": "בן גוריון",
      "code": "204",
      "houseNumber": 95
    },
    "coordinates": {
      "wgs84": {
        "longitude": 34.78004965,
        "latitude": 32.08188297
      },
      "itm": {
        "x": 179389.6,
        "y": 665477.5
      }
    },
    "container": {
      "type": "מתקן זכוכית (מונף)",
      "count": 1,
      "uniqueId": "659-91"
    },
    "importDate": "27/12/2024 01:34:00"
  },
  {
    "id": 92,
    "street": {
      "name": "ישעיהו",
      "code": "207",
      "houseNumber": 15
    },
    "coordinates": {
      "wgs84": {
        "longitude": 34.78049434,
        "latitude": 32.09323333
      },
      "itm": {
        "x": 179436.54,
        "y": 666735.99
      }
    },
    "container": {
      "type": "מתקן זכוכית (מונף)",
      "count": 1,
      "uniqueId": "659-92"
    },
    "importDate": "27/12/2024 01:34:00"
  },
  {
    "id": 93,
    "street": {
      "name": "שמעון התרסי",
      "code": "210",
      "houseNumber": 28
    },
    "coordinates": {
      "wgs84": {
        "longitude": 34.78179958,
        "latitude": 32.09462416
      },
      "itm": {
        "x": 179560.36,
        "y": 666889.76
      }
    },
    "container": {
      "type": "מתקן זכוכית (מונף)",
      "count": 1,
      "uniqueId": "659-93"
    },
    "importDate": "27/12/2024 01:34:00"
  },
  {
    "id": 94,
    "street": {
      "name": "ויתקין",
      "code": "243",
      "houseNumber": 28
    },
    "coordinates": {
      "wgs84": {
        "longitude": 34.77340496,
        "latitude": 32.09157194
      },
      "itm": {
        "x": 178766.57,
        "y": 666554.29
      }
    },
    "container": {
      "type": "מתקן טקסטיל",
      "count": 1,
      "uniqueId": "659-94"
    },
    "importDate": "27/12/2024 01:34:00"
  },
  {
    "id": 95,
    "street": {
      "name": "אד\"ם הכהן",
      "code": "279",
      "houseNumber": 5
    },
    "coordinates": {
      "wgs84": {
        "longitude": 34.77707575,
        "latitude": 32.08509522
      },
      "itm": {
        "x": 179110.25,
        "y": 665834.77
      }
    },
    "container": {
      "type": "מתקן טקסטיל",
      "count": 1,
      "uniqueId": "659-95"
    },
    "importDate": "27/12/2024 01:34:00"
  },
  {
    "id": 96,
    "street": {
      "name": "פילון",
      "code": "306",
      "houseNumber": 5
    },
    "coordinates": {
      "wgs84": {
        "longitude": 34.7769936,
        "latitude": 32.08236382
      },
      "itm": {
        "x": 179101.29,
        "y": 665531.91
      }
    },
    "container": {
      "type": "מתקן אלקטרוניקה",
      "count": 1,
      "uniqueId": "659-96"
    },
    "importDate": "27/12/2024 01:34:00"
  },
  {
    "id": 97,
    "street": {
      "name": "דרויאנוב",
      "code": "321",
      "houseNumber": 5
    },
    "coordinates": {
      "wgs84": {
        "longitude": 34.7719456,
        "latitude": 32.0768183
      },
      "itm": {
        "x": 178622.24,
        "y": 664918.77
      }
    },
    "container": {
      "type": "מתקן זכוכית (מונף)",
      "count": 1,
      "uniqueId": "659-97"
    },
    "importDate": "27/12/2024 01:34:00"
  },
  {
    "id": 98,
    "street": {
      "name": "הוברמן",
      "code": "344",
      "houseNumber": 1
    },
    "coordinates": {
      "wgs84": {
        "longitude": 34.78010411,
        "latitude": 32.07213329
      },
      "itm": {
        "x": 179390.49,
        "y": 664396.33
      }
    },
    "container": {
      "type": "מתקן אלקטרוניקה",
      "count": 1,
      "uniqueId": "659-98"
    },
    "importDate": "27/12/2024 01:34:00"
  },
  {
    "id": 99,
    "street": {
      "name": "בן ציון",
      "code": "350",
      "houseNumber": 1
    },
    "coordinates": {
      "wgs84": {
        "longitude": 34.77564587,
        "latitude": 32.07411349
      },
      "itm": {
        "x": 178970.41,
        "y": 664617.51
      }
    },
    "container": {
      "type": "מתקן אריזות (סולארי)",
      "count": 1,
      "uniqueId": "659-99"
    },
    "importDate": "27/12/2024 01:34:00"
  },
  {
    "id": 100,
    "street": {
      "name": "בן ציון",
      "code": "350",
      "houseNumber": 4
    },
    "coordinates": {
      "wgs84": {
        "longitude": 34.77554109,
        "latitude": 32.07374808
      },
      "itm": {
        "x": 178960.36,
        "y": 664577.03
      }
    },
    "container": {
      "type": "מתקן אריזות (סולארי)",
      "count": 1,
      "uniqueId": "659-100"
    },
    "importDate": "27/12/2024 01:34:00"
  },
  {
    "id": 101,
    "street": {
      "name": "מל\"ן",
      "code": "368",
      "houseNumber": 33
    },
    "coordinates": {
      "wgs84": {
        "longitude": 34.76826646,
        "latitude": 32.06906127
      },
      "itm": {
        "x": 178271.39,
        "y": 664059.9
      }
    },
    "container": {
      "type": "מתקן אריזות (סולארי)",
      "count": 1,
      "uniqueId": "659-101"
    },
    "importDate": "27/12/2024 01:34:00"
  },
  {
    "id": 102,
    "street": {
      "name": "מל\"ן",
      "code": "368",
      "houseNumber": 1
    },
    "coordinates": {
      "wgs84": {
        "longitude": 34.7665524,
        "latitude": 32.06996747
      },
      "itm": {
        "x": 178109.95,
        "y": 664161
      }
    },
    "container": {
      "type": "מתקן אריזות (סולארי)",
      "count": 1,
      "uniqueId": "659-102"
    },
    "importDate": "27/12/2024 01:34:00"
  },
  {
    "id": 103,
    "street": {
      "name": "ישכון",
      "code": "378",
      "houseNumber": 21
    },
    "coordinates": {
      "wgs84": {
        "longitude": 34.76729341,
        "latitude": 32.06919339
      },
      "itm": {
        "x": 178179.57,
        "y": 664074.9
      }
    },
    "container": {
      "type": "מתקן אריזות (סולארי)",
      "count": 1,
      "uniqueId": "659-103"
    },
    "importDate": "27/12/2024 01:34:00"
  },
  {
    "id": 104,
    "street": {
      "name": "הגר\"א",
      "code": "384",
      "houseNumber": 28
    },
    "coordinates": {
      "wgs84": {
        "longitude": 34.78192543,
        "latitude": 32.05924873
      },
      "itm": {
        "x": 179556.87,
        "y": 662966.9
      }
    },
    "container": {
      "type": "מתקן אלקטרוניקה",
      "count": 1,
      "uniqueId": "659-104"
    },
    "importDate": "27/12/2024 01:34:00"
  },
  {
    "id": 105,
    "street": {
      "name": "הגר\"א",
      "code": "384",
      "houseNumber": 20
    },
    "coordinates": {
      "wgs84": {
        "longitude": 34.78150141,
        "latitude": 32.05996649
      },
      "itm": {
        "x": 179517.14,
        "y": 663046.65
      }
    },
    "container": {
      "type": "מתקן טקסטיל",
      "count": 1,
      "uniqueId": "659-105"
    },
    "importDate": "27/12/2024 01:34:00"
  },
  {
    "id": 106,
    "street": {
      "name": "סלומון",
      "code": "389",
      "houseNumber": 8
    },
    "coordinates": {
      "wgs84": {
        "longitude": 34.778826,
        "latitude": 32.059857
      },
      "itm": {
        "x": 179264.44,
        "y": 663035.46
      }
    },
    "container": {
      "type": "קרטוניה",
      "count": 1,
      "uniqueId": "659-106"
    },
    "importDate": "27/12/2024 01:34:00"
  },
  {
    "id": 107,
    "street": {
      "name": "מירון",
      "code": "393",
      "houseNumber": 6
    },
    "coordinates": {
      "wgs84": {
        "longitude": 34.78236658,
        "latitude": 32.05794191
      },
      "itm": {
        "x": 179597.96,
        "y": 662821.83
      }
    },
    "container": {
      "type": "מתקן זכוכית (מונף)",
      "count": 1,
      "uniqueId": "659-107"
    },
    "importDate": "27/12/2024 01:34:00"
  },
  {
    "id": 108,
    "street": {
      "name": "הכובשים",
      "code": "410",
      "houseNumber": 57
    },
    "coordinates": {
      "wgs84": {
        "longitude": 34.76584161,
        "latitude": 32.06890336
      },
      "itm": {
        "x": 178042.35,
        "y": 664043.25
      }
    },
    "container": {
      "type": "מתקן אריזות (מונף)",
      "count": 1,
      "uniqueId": "659-108"
    },
    "importDate": "27/12/2024 01:34:00"
  },
  {
    "id": 109,
    "street": {
      "name": "הכובשים",
      "code": "410",
      "houseNumber": 57
    },
    "coordinates": {
      "wgs84": {
        "longitude": 34.76584161,
        "latitude": 32.06890336
      },
      "itm": {
        "x": 178042.35,
        "y": 664043.25
      }
    },
    "container": {
      "type": "מתקן טקסטיל",
      "count": 1,
      "uniqueId": "659-109"
    },
    "importDate": "27/12/2024 01:34:00"
  },
  {
    "id": 110,
    "street": {
      "name": "הכובשים",
      "code": "410",
      "houseNumber": 57
    },
    "coordinates": {
      "wgs84": {
        "longitude": 34.76584161,
        "latitude": 32.06890336
      },
      "itm": {
        "x": 178042.35,
        "y": 664043.25
      }
    },
    "container": {
      "type": "מתקן זכוכית (מונף)",
      "count": 1,
      "uniqueId": "659-110"
    },
    "importDate": "27/12/2024 01:34:00"
  },
  {
    "id": 111,
    "street": {
      "name": "הכובשים",
      "code": "410",
      "houseNumber": 57
    },
    "coordinates": {
      "wgs84": {
        "longitude": 34.76584161,
        "latitude": 32.06890336
      },
      "itm": {
        "x": 178042.35,
        "y": 664043.25
      }
    },
    "container": {
      "type": "מיכלון / מיכל כחול (מרכז מחזור)",
      "count": 1,
      "uniqueId": "659-111"
    },
    "importDate": "27/12/2024 01:34:00"
  },
  {
    "id": 112,
    "street": {
      "name": "הכובשים",
      "code": "410",
      "houseNumber": 24
    },
    "coordinates": {
      "wgs84": {
        "longitude": 34.7667534,
        "latitude": 32.07060612
      },
      "itm": {
        "x": 178129.21,
        "y": 664231.75
      }
    },
    "container": {
      "type": "מתקן אריזות (סולארי)",
      "count": 1,
      "uniqueId": "659-112"
    },
    "importDate": "27/12/2024 01:34:00"
  },
  {
    "id": 113,
    "street": {
      "name": "הכובשים",
      "code": "410",
      "houseNumber": 29
    },
    "coordinates": {
      "wgs84": {
        "longitude": 34.76696791,
        "latitude": 32.07065654
      },
      "itm": {
        "x": 178149.49,
        "y": 664237.26
      }
    },
    "container": {
      "type": "מתקן אריזות (סולארי)",
      "count": 1,
      "uniqueId": "659-113"
    },
    "importDate": "27/12/2024 01:34:00"
  },
  {
    "id": 114,
    "street": {
      "name": "אלישיב",
      "code": "430",
      "houseNumber": 1
    },
    "coordinates": {
      "wgs84": {
        "longitude": 34.76677738,
        "latitude": 32.07023488
      },
      "itm": {
        "x": 178131.31,
        "y": 664190.57
      }
    },
    "container": {
      "type": "מתקן אריזות (סולארי)",
      "count": 1,
      "uniqueId": "659-114"
    },
    "importDate": "27/12/2024 01:34:00"
  },
  {
    "id": 115,
    "street": {
      "name": "נחליאל",
      "code": "431",
      "houseNumber": 27
    },
    "coordinates": {
      "wgs84": {
        "longitude": 34.76758162,
        "latitude": 32.06927909
      },
      "itm": {
        "x": 178206.82,
        "y": 664084.3
      }
    },
    "container": {
      "type": "מתקן אריזות (סולארי)",
      "count": 1,
      "uniqueId": "659-115"
    },
    "importDate": "27/12/2024 01:34:00"
  },
  {
    "id": 116,
    "street": {
      "name": "נחליאל",
      "code": "431",
      "houseNumber": 1
    },
    "coordinates": {
      "wgs84": {
        "longitude": 34.76676229,
        "latitude": 32.0681157
      },
      "itm": {
        "x": 178128.93,
        "y": 663955.58
      }
    },
    "container": {
      "type": "מתקן אריזות (סולארי)",
      "count": 1,
      "uniqueId": "659-116"
    },
    "importDate": "27/12/2024 01:34:00"
  },
  {
    "id": 117,
    "street": {
      "name": "קהילת עדן",
      "code": "433",
      "houseNumber": 2
    },
    "coordinates": {
      "wgs84": {
        "longitude": 34.76649023,
        "latitude": 32.06880249
      },
      "itm": {
        "x": 178103.55,
        "y": 664031.84
      }
    },
    "container": {
      "type": "מתקן אריזות (סולארי)",
      "count": 1,
      "uniqueId": "659-117"
    },
    "importDate": "27/12/2024 01:34:00"
  },
  {
    "id": 118,
    "street": {
      "name": "קהילת עדן",
      "code": "433",
      "houseNumber": 13
    },
    "coordinates": {
      "wgs84": {
        "longitude": 34.76684982,
        "latitude": 32.06936621
      },
      "itm": {
        "x": 178137.76,
        "y": 664094.22
      }
    },
    "container": {
      "type": "מתקן אריזות (סולארי)",
      "count": 1,
      "uniqueId": "659-118"
    },
    "importDate": "27/12/2024 01:34:00"
  },
  {
    "id": 119,
    "street": {
      "name": "ההגנה",
      "code": "460",
      "houseNumber": 135
    },
    "coordinates": {
      "wgs84": {
        "longitude": 34.80221741,
        "latitude": 32.05360366
      },
      "itm": {
        "x": 181470.8,
        "y": 662333.67
      }
    },
    "container": {
      "type": "מתקן אלקטרוניקה (חבית+סוללות)",
      "count": 1,
      "uniqueId": "659-119"
    },
    "importDate": "27/12/2024 01:34:00"
  },
  {
    "id": 120,
    "street": {
      "name": "ויצמן",
      "code": "472",
      "houseNumber": 69
    },
    "coordinates": {
      "wgs84": {
        "longitude": 34.79000219,
        "latitude": 32.08852704
      },
      "itm": {
        "x": 180332.07,
        "y": 666210.71
      }
    },
    "container": {
      "type": "מתקן זכוכית (מונף)",
      "count": 1,
      "uniqueId": "659-120"
    },
    "importDate": "27/12/2024 01:34:00"
  },
  {
    "id": 121,
    "street": {
      "name": "ויצמן",
      "code": "472",
      "houseNumber": 30
    },
    "coordinates": {
      "wgs84": {
        "longitude": 34.78948267,
        "latitude": 32.08450543
      },
      "itm": {
        "x": 180281.31,
        "y": 665764.94
      }
    },
    "container": {
      "type": "מתקן זכוכית (מונף)",
      "count": 1,
      "uniqueId": "659-121"
    },
    "importDate": "27/12/2024 01:34:00"
  },
  {
    "id": 122,
    "street": {
      "name": "ויצמן",
      "code": "472",
      "houseNumber": 30
    },
    "coordinates": {
      "wgs84": {
        "longitude": 34.78948267,
        "latitude": 32.08450543
      },
      "itm": {
        "x": 180281.31,
        "y": 665764.94
      }
    },
    "container": {
      "type": "מתקן טקסטיל",
      "count": 1,
      "uniqueId": "659-122"
    },
    "importDate": "27/12/2024 01:34:00"
  },
  {
    "id": 123,
    "street": {
      "name": "קרליבך",
      "code": "476",
      "houseNumber": 39
    },
    "coordinates": {
      "wgs84": {
        "longitude": 34.7826296,
        "latitude": 32.07045143
      },
      "itm": {
        "x": 179628.22,
        "y": 664208.93
      }
    },
    "container": {
      "type": "מתקן אריזות (סולארי)",
      "count": 1,
      "uniqueId": "659-123"
    },
    "importDate": "27/12/2024 01:34:00"
  },
  {
    "id": 124,
    "street": {
      "name": "קרליבך",
      "code": "476",
      "houseNumber": 39
    },
    "coordinates": {
      "wgs84": {
        "longitude": 34.7826296,
        "latitude": 32.07045143
      },
      "itm": {
        "x": 179628.22,
        "y": 664208.93
      }
    },
    "container": {
      "type": "מתקן אשפה (סולארי)",
      "count": 1,
      "uniqueId": "659-124"
    },
    "importDate": "27/12/2024 01:34:00"
  },
  {
    "id": 125,
    "street": {
      "name": "בני דן",
      "code": "477",
      "houseNumber": 66
    },
    "coordinates": {
      "wgs84": {
        "longitude": 34.79217471,
        "latitude": 32.09633847
      },
      "itm": {
        "x": 180540.48,
        "y": 667076.15
      }
    },
    "container": {
      "type": "מתקן זכוכית (מונף)",
      "count": 1,
      "uniqueId": "659-125"
    },
    "importDate": "27/12/2024 01:34:00"
  },
  {
    "id": 126,
    "street": {
      "name": "בני דן",
      "code": "477",
      "houseNumber": 66
    },
    "coordinates": {
      "wgs84": {
        "longitude": 34.79217471,
        "latitude": 32.09633847
      },
      "itm": {
        "x": 180540.48,
        "y": 667076.15
      }
    },
    "container": {
      "type": "מתקן טקסטיל",
      "count": 1,
      "uniqueId": "659-126"
    },
    "importDate": "27/12/2024 01:34:00"
  },
  {
    "id": 127,
    "street": {
      "name": "פנקס דוד צבי",
      "code": "478",
      "houseNumber": 62
    },
    "coordinates": {
      "wgs84": {
        "longitude": 34.7921631,
        "latitude": 32.0909782
      },
      "itm": {
        "x": 180537.11,
        "y": 666481.75
      }
    },
    "container": {
      "type": "מתקן זכוכית (מונף)",
      "count": 1,
      "uniqueId": "659-127"
    },
    "importDate": "27/12/2024 01:34:00"
  },
  {
    "id": 128,
    "street": {
      "name": "נורדאו",
      "code": "483",
      "houseNumber": 63
    },
    "coordinates": {
      "wgs84": {
        "longitude": 34.77926065,
        "latitude": 32.09246151
      },
      "itm": {
        "x": 179319.74,
        "y": 666650.85
      }
    },
    "container": {
      "type": "מתקן אלקטרוניקה",
      "count": 1,
      "uniqueId": "659-128"
    },
    "importDate": "27/12/2024 01:34:00"
  },
  {
    "id": 129,
    "street": {
      "name": "אבן גבירול",
      "code": "496",
      "houseNumber": 30
    },
    "coordinates": {
      "wgs84": {
        "longitude": 34.7818589,
        "latitude": 32.07522118
      },
      "itm": {
        "x": 179557.52,
        "y": 664738.12
      }
    },
    "container": {
      "type": "מתקן אריזות (סולארי)",
      "count": 1,
      "uniqueId": "659-129"
    },
    "importDate": "27/12/2024 01:34:00"
  },
  {
    "id": 130,
    "street": {
      "name": "אבן גבירול",
      "code": "496",
      "houseNumber": 69
    },
    "coordinates": {
      "wgs84": {
        "longitude": 34.78068141,
        "latitude": 32.08154386
      },
      "itm": {
        "x": 179449.1,
        "y": 665439.67
      }
    },
    "container": {
      "type": "מתקן אלקטרוניקה",
      "count": 1,
      "uniqueId": "659-130"
    },
    "importDate": "27/12/2024 01:34:00"
  },
  {
    "id": 131,
    "street": {
      "name": "תרמ\"ב",
      "code": "498",
      "houseNumber": 16
    },
    "coordinates": {
      "wgs84": {
        "longitude": 34.76665672,
        "latitude": 32.06858358
      },
      "itm": {
        "x": 178119.17,
        "y": 664007.5
      }
    },
    "container": {
      "type": "מתקן אשפה (סולארי)",
      "count": 1,
      "uniqueId": "659-131"
    },
    "importDate": "27/12/2024 01:34:00"
  },
  {
    "id": 132,
    "street": {
      "name": "תרמ\"ב",
      "code": "498",
      "houseNumber": 16
    },
    "coordinates": {
      "wgs84": {
        "longitude": 34.76665672,
        "latitude": 32.06858358
      },
      "itm": {
        "x": 178119.17,
        "y": 664007.5
      }
    },
    "container": {
      "type": "מתקן אריזות (סולארי)",
      "count": 1,
      "uniqueId": "659-132"
    },
    "importDate": "27/12/2024 01:34:00"
  },
  {
    "id": 133,
    "street": {
      "name": "הוז דב",
      "code": "506",
      "houseNumber": 16
    },
    "coordinates": {
      "wgs84": {
        "longitude": 34.7725321,
        "latitude": 32.08066903
      },
      "itm": {
        "x": 178679.32,
        "y": 665345.57
      }
    },
    "container": {
      "type": "מתקן טקסטיל",
      "count": 1,
      "uniqueId": "659-133"
    },
    "importDate": "27/12/2024 01:34:00"
  },
  {
    "id": 134,
    "street": {
      "name": "הוז דב",
      "code": "506",
      "houseNumber": 16
    },
    "coordinates": {
      "wgs84": {
        "longitude": 34.7725321,
        "latitude": 32.08066903
      },
      "itm": {
        "x": 178679.32,
        "y": 665345.57
      }
    },
    "container": {
      "type": "מתקן אלקטרוניקה",
      "count": 1,
      "uniqueId": "659-134"
    },
    "importDate": "27/12/2024 01:34:00"
  },
  {
    "id": 135,
    "street": {
      "name": "הוז דב",
      "code": "506",
      "houseNumber": 2
    },
    "coordinates": {
      "wgs84": {
        "longitude": 34.7720523,
        "latitude": 32.0789763
      },
      "itm": {
        "x": 178633.27,
        "y": 665158.03
      }
    },
    "container": {
      "type": "מתקן זכוכית (מונף)",
      "count": 1,
      "uniqueId": "659-135"
    },
    "importDate": "27/12/2024 01:34:00"
  },
  {
    "id": 136,
    "street": {
      "name": "דה האז",
      "code": "508",
      "houseNumber": 8
    },
    "coordinates": {
      "wgs84": {
        "longitude": 34.78489605,
        "latitude": 32.0934392
      },
      "itm": {
        "x": 179852.15,
        "y": 666757.25
      }
    },
    "container": {
      "type": "מתקן זכוכית (מונף)",
      "count": 1,
      "uniqueId": "659-136"
    },
    "importDate": "27/12/2024 01:34:00"
  },
  {
    "id": 137,
    "street": {
      "name": "לינקולן",
      "code": "509",
      "houseNumber": 2
    },
    "coordinates": {
      "wgs84": {
        "longitude": 34.78018126,
        "latitude": 32.0675425
      },
      "itm": {
        "x": 179395.77,
        "y": 663887.23
      }
    },
    "container": {
      "type": "מתקן זכוכית (מונף)",
      "count": 1,
      "uniqueId": "659-137"
    },
    "importDate": "27/12/2024 01:34:00"
  },
  {
    "id": 138,
    "street": {
      "name": "לינקולן",
      "code": "509",
      "houseNumber": 16
    },
    "coordinates": {
      "wgs84": {
        "longitude": 34.78191179,
        "latitude": 32.06657879
      },
      "itm": {
        "x": 179558.76,
        "y": 663779.74
      }
    },
    "container": {
      "type": "מתקן אלקטרוניקה",
      "count": 1,
      "uniqueId": "659-138"
    },
    "importDate": "27/12/2024 01:34:00"
  },
  {
    "id": 139,
    "street": {
      "name": "קארו יוסף",
      "code": "512",
      "houseNumber": 19
    },
    "coordinates": {
      "wgs84": {
        "longitude": 34.79128648,
        "latitude": 32.07069749
      },
      "itm": {
        "x": 180445.74,
        "y": 664233.12
      }
    },
    "container": {
      "type": "מתקן זכוכית (מונף)",
      "count": 1,
      "uniqueId": "659-139"
    },
    "importDate": "27/12/2024 01:34:00"
  },
  {
    "id": 140,
    "street": {
      "name": "קארו יוסף",
      "code": "512",
      "houseNumber": 19
    },
    "coordinates": {
      "wgs84": {
        "longitude": 34.79128648,
        "latitude": 32.07069749
      },
      "itm": {
        "x": 180445.74,
        "y": 664233.12
      }
    },
    "container": {
      "type": "מתקן טקסטיל",
      "count": 1,
      "uniqueId": "659-140"
    },
    "importDate": "27/12/2024 01:34:00"
  },
  {
    "id": 141,
    "street": {
      "name": "יהודית",
      "code": "513",
      "houseNumber": 36
    },
    "coordinates": {
      "wgs84": {
        "longitude": 34.79224885,
        "latitude": 32.06951608
      },
      "itm": {
        "x": 180536.11,
        "y": 664101.77
      }
    },
    "container": {
      "type": "מתקן זכוכית (מונף)",
      "count": 1,
      "uniqueId": "659-141"
    },
    "importDate": "27/12/2024 01:34:00"
  },
  {
    "id": 142,
    "street": {
      "name": "יהודית",
      "code": "513",
      "houseNumber": 36
    },
    "coordinates": {
      "wgs84": {
        "longitude": 34.79224885,
        "latitude": 32.06951608
      },
      "itm": {
        "x": 180536.11,
        "y": 664101.77
      }
    },
    "container": {
      "type": "מתקן טקסטיל",
      "count": 1,
      "uniqueId": "659-142"
    },
    "importDate": "27/12/2024 01:34:00"
  },
  {
    "id": 143,
    "street": {
      "name": "ילין מור נתן",
      "code": "518",
      "houseNumber": 6
    },
    "coordinates": {
      "wgs84": {
        "longitude": 34.79109233,
        "latitude": 32.0691339
      },
      "itm": {
        "x": 180426.74,
        "y": 664059.8
      }
    },
    "container": {
      "type": "מתקן זכוכית (מונף)",
      "count": 1,
      "uniqueId": "659-143"
    },
    "importDate": "27/12/2024 01:34:00"
  },
  {
    "id": 144,
    "street": {
      "name": "המעפילים",
      "code": "537",
      "houseNumber": 34
    },
    "coordinates": {
      "wgs84": {
        "longitude": 34.78946925,
        "latitude": 32.05875773
      },
      "itm": {
        "x": 180269.05,
        "y": 662909.76
      }
    },
    "container": {
      "type": "קרטוניה",
      "count": 1,
      "uniqueId": "659-144"
    },
    "importDate": "27/12/2024 01:34:00"
  },
  {
    "id": 145,
    "street": {
      "name": "אנטוקולסקי",
      "code": "545",
      "houseNumber": 4
    },
    "coordinates": {
      "wgs84": {
        "longitude": 34.78261069,
        "latitude": 32.08401506
      },
      "itm": {
        "x": 179632.32,
        "y": 665713.02
      }
    },
    "container": {
      "type": "מתקן אלקטרוניקה",
      "count": 1,
      "uniqueId": "659-145"
    },
    "importDate": "27/12/2024 01:34:00"
  },
  {
    "id": 146,
    "street": {
      "name": "תש\"ח",
      "code": "574",
      "houseNumber": 2
    },
    "coordinates": {
      "wgs84": {
        "longitude": 34.787108,
        "latitude": 32.084871
      },
      "itm": {
        "x": 180057.27,
        "y": 665806.33
      }
    },
    "container": {
      "type": "קרטוניה",
      "count": 1,
      "uniqueId": "659-146"
    },
    "importDate": "27/12/2024 01:34:00"
  },
  {
    "id": 147,
    "street": {
      "name": "בן שפרוט",
      "code": "578",
      "houseNumber": 2
    },
    "coordinates": {
      "wgs84": {
        "longitude": 34.78439086,
        "latitude": 32.08589747
      },
      "itm": {
        "x": 179801.2,
        "y": 665921.12
      }
    },
    "container": {
      "type": "מתקן טקסטיל",
      "count": 1,
      "uniqueId": "659-147"
    },
    "importDate": "27/12/2024 01:34:00"
  },
  {
    "id": 148,
    "street": {
      "name": "בן שפרוט",
      "code": "578",
      "houseNumber": 2
    },
    "coordinates": {
      "wgs84": {
        "longitude": 34.78439086,
        "latitude": 32.08589747
      },
      "itm": {
        "x": 179801.2,
        "y": 665921.12
      }
    },
    "container": {
      "type": "מתקן זכוכית (מונף)",
      "count": 1,
      "uniqueId": "659-148"
    },
    "importDate": "27/12/2024 01:34:00"
  },
  {
    "id": 149,
    "street": {
      "name": "אנטיגונוס",
      "code": "580",
      "houseNumber": 8
    },
    "coordinates": {
      "wgs84": {
        "longitude": 34.7852783,
        "latitude": 32.09205385
      },
      "itm": {
        "x": 179887.63,
        "y": 666603.49
      }
    },
    "container": {
      "type": "מתקן טקסטיל",
      "count": 1,
      "uniqueId": "659-149"
    },
    "importDate": "27/12/2024 01:34:00"
  },
  {
    "id": 150,
    "street": {
      "name": "ירושלמי",
      "code": "599",
      "houseNumber": 18
    },
    "coordinates": {
      "wgs84": {
        "longitude": 34.80077119,
        "latitude": 32.0958975
      },
      "itm": {
        "x": 181351.77,
        "y": 667024.19
      }
    },
    "container": {
      "type": "מתקן אלקטרוניקה",
      "count": 1,
      "uniqueId": "659-150"
    },
    "importDate": "27/12/2024 01:34:00"
  },
  {
    "id": 151,
    "street": {
      "name": "בבלי",
      "code": "600",
      "houseNumber": 27
    },
    "coordinates": {
      "wgs84": {
        "longitude": 34.79844511,
        "latitude": 32.09483019
      },
      "itm": {
        "x": 181131.75,
        "y": 666906.66
      }
    },
    "container": {
      "type": "מתקן זכוכית (מונף)",
      "count": 1,
      "uniqueId": "659-151"
    },
    "importDate": "27/12/2024 01:34:00"
  },
  {
    "id": 152,
    "street": {
      "name": "אנילביץ מרדכי",
      "code": "622",
      "houseNumber": 13
    },
    "coordinates": {
      "wgs84": {
        "longitude": 34.78710774,
        "latitude": 32.056988
      },
      "itm": {
        "x": 180045.28,
        "y": 662714.36
      }
    },
    "container": {
      "type": "מתקן טקסטיל",
      "count": 1,
      "uniqueId": "659-152"
    },
    "importDate": "27/12/2024 01:34:00"
  },
  {
    "id": 153,
    "street": {
      "name": "יד לבנים",
      "code": "637",
      "houseNumber": 18
    },
    "coordinates": {
      "wgs84": {
        "longitude": 34.79723798,
        "latitude": 32.06062012
      },
      "itm": {
        "x": 181003.47,
        "y": 663113.51
      }
    },
    "container": {
      "type": "מתקן טקסטיל",
      "count": 1,
      "uniqueId": "659-153"
    },
    "importDate": "27/12/2024 01:34:00"
  },
  {
    "id": 154,
    "street": {
      "name": "החי\"ל",
      "code": "640",
      "houseNumber": 8
    },
    "coordinates": {
      "wgs84": {
        "longitude": 34.79257399,
        "latitude": 32.05634058
      },
      "itm": {
        "x": 180561.23,
        "y": 662640.61
      }
    },
    "container": {
      "type": "מתקן אלקטרוניקה",
      "count": 1,
      "uniqueId": "659-154"
    },
    "importDate": "27/12/2024 01:34:00"
  },
  {
    "id": 155,
    "street": {
      "name": "החי\"ל",
      "code": "640",
      "houseNumber": 24
    },
    "coordinates": {
      "wgs84": {
        "longitude": 34.79675911,
        "latitude": 32.05634637
      },
      "itm": {
        "x": 180956.46,
        "y": 662639.76
      }
    },
    "container": {
      "type": "מתקן זכוכית (מונף)",
      "count": 1,
      "uniqueId": "659-155"
    },
    "importDate": "27/12/2024 01:34:00"
  },
  {
    "id": 156,
    "street": {
      "name": "אלון יגאל",
      "code": "644",
      "houseNumber": 30
    },
    "coordinates": {
      "wgs84": {
        "longitude": 34.79270362,
        "latitude": 32.05588117
      },
      "itm": {
        "x": 180573.27,
        "y": 662589.62
      }
    },
    "container": {
      "type": "מתקן אלקטרוניקה",
      "count": 1,
      "uniqueId": "659-156"
    },
    "importDate": "27/12/2024 01:34:00"
  },
  {
    "id": 157,
    "street": {
      "name": "אלון יגאל",
      "code": "644",
      "houseNumber": 6
    },
    "coordinates": {
      "wgs84": {
        "longitude": 34.79175328,
        "latitude": 32.05450672
      },
      "itm": {
        "x": 180482.94,
        "y": 662437.55
      }
    },
    "container": {
      "type": "מתקן זכוכית (מונף)",
      "count": 1,
      "uniqueId": "659-157"
    },
    "importDate": "27/12/2024 01:34:00"
  },
  {
    "id": 158,
    "street": {
      "name": "אלון יגאל",
      "code": "644",
      "houseNumber": 36
    },
    "coordinates": {
      "wgs84": {
        "longitude": 34.79198702,
        "latitude": 32.05714617
      },
      "itm": {
        "x": 180506.14,
        "y": 662730.16
      }
    },
    "container": {
      "type": "מתקן זכוכית (מונף)",
      "count": 1,
      "uniqueId": "659-158"
    },
    "importDate": "27/12/2024 01:34:00"
  },
  {
    "id": 159,
    "street": {
      "name": "לוחמי גליפולי",
      "code": "647",
      "houseNumber": 27
    },
    "coordinates": {
      "wgs84": {
        "longitude": 34.79451141,
        "latitude": 32.05829718
      },
      "itm": {
        "x": 180745.02,
        "y": 662856.89
      }
    },
    "container": {
      "type": "מתקן זכוכית (מונף)",
      "count": 1,
      "uniqueId": "659-159"
    },
    "importDate": "27/12/2024 01:34:00"
  },
  {
    "id": 160,
    "street": {
      "name": "לוחמי גליפולי",
      "code": "647",
      "houseNumber": 27
    },
    "coordinates": {
      "wgs84": {
        "longitude": 34.79451141,
        "latitude": 32.05829718
      },
      "itm": {
        "x": 180745.02,
        "y": 662856.89
      }
    },
    "container": {
      "type": "מתקן טקסטיל",
      "count": 1,
      "uniqueId": "659-160"
    },
    "importDate": "27/12/2024 01:34:00"
  },
  {
    "id": 161,
    "street": {
      "name": "סולד הנרייטה",
      "code": "673",
      "houseNumber": 15
    },
    "coordinates": {
      "wgs84": {
        "longitude": 34.79151169,
        "latitude": 32.08081863
      },
      "itm": {
        "x": 180471.3,
        "y": 665355.38
      }
    },
    "container": {
      "type": "מיכלון / מיכל כתום (מרכז מחזור)",
      "count": 2,
      "uniqueId": "659-161"
    },
    "importDate": "27/12/2024 01:34:00"
  },
  {
    "id": 162,
    "street": {
      "name": "מודיליאני",
      "code": "675",
      "houseNumber": 22
    },
    "coordinates": {
      "wgs84": {
        "longitude": 34.78497,
        "latitude": 32.08059
      },
      "itm": {
        "x": 179853.58,
        "y": 665332.37
      }
    },
    "container": {
      "type": "מתקן אלקטרוניקה",
      "count": 1,
      "uniqueId": "659-162"
    },
    "importDate": "27/12/2024 01:34:00"
  },
  {
    "id": 163,
    "street": {
      "name": "מודיליאני",
      "code": "675",
      "houseNumber": 22
    },
    "coordinates": {
      "wgs84": {
        "longitude": 34.78497,
        "latitude": 32.08059
      },
      "itm": {
        "x": 179853.58,
        "y": 665332.37
      }
    },
    "container": {
      "type": "מתקן אלקטרוניקה",
      "count": 1,
      "uniqueId": "659-163"
    },
    "importDate": "27/12/2024 01:34:00"
  },
  {
    "id": 164,
    "street": {
      "name": "לסר אורי",
      "code": "678",
      "houseNumber": 1
    },
    "coordinates": {
      "wgs84": {
        "longitude": 34.78514759,
        "latitude": 32.08017746
      },
      "itm": {
        "x": 179870.17,
        "y": 665286.56
      }
    },
    "container": {
      "type": "מתקן טקסטיל",
      "count": 1,
      "uniqueId": "659-164"
    },
    "importDate": "27/12/2024 01:34:00"
  },
  {
    "id": 165,
    "street": {
      "name": "לסר אורי",
      "code": "678",
      "houseNumber": 1
    },
    "coordinates": {
      "wgs84": {
        "longitude": 34.78514759,
        "latitude": 32.08017746
      },
      "itm": {
        "x": 179870.17,
        "y": 665286.56
      }
    },
    "container": {
      "type": "מתקן זכוכית (מונף)",
      "count": 1,
      "uniqueId": "659-165"
    },
    "importDate": "27/12/2024 01:34:00"
  },
  {
    "id": 166,
    "street": {
      "name": "בית עובד",
      "code": "690",
      "houseNumber": 8
    },
    "coordinates": {
      "wgs84": {
        "longitude": 34.78720377,
        "latitude": 32.06418026
      },
      "itm": {
        "x": 180057.44,
        "y": 663511.88
      }
    },
    "container": {
      "type": "מתקן זכוכית (מונף)",
      "count": 1,
      "uniqueId": "659-166"
    },
    "importDate": "27/12/2024 01:34:00"
  },
  {
    "id": 167,
    "street": {
      "name": "נחלת יצחק",
      "code": "700",
      "houseNumber": 31
    },
    "coordinates": {
      "wgs84": {
        "longitude": 34.80021115,
        "latitude": 32.07413299
      },
      "itm": {
        "x": 181289.86,
        "y": 664610.9
      }
    },
    "container": {
      "type": "מתקן זכוכית (מונף)",
      "count": 1,
      "uniqueId": "659-167"
    },
    "importDate": "27/12/2024 01:34:00"
  },
  {
    "id": 168,
    "street": {
      "name": "נחלת יצחק",
      "code": "700",
      "houseNumber": 35
    },
    "coordinates": {
      "wgs84": {
        "longitude": 34.80009239,
        "latitude": 32.07506406
      },
      "itm": {
        "x": 181279.03,
        "y": 664714.19
      }
    },
    "container": {
      "type": "מתקן אלקטרוניקה",
      "count": 1,
      "uniqueId": "659-168"
    },
    "importDate": "27/12/2024 01:34:00"
  },
  {
    "id": 169,
    "street": {
      "name": "נחלת יצחק",
      "code": "700",
      "houseNumber": 20
    },
    "coordinates": {
      "wgs84": {
        "longitude": 34.79867398,
        "latitude": 32.07374677
      },
      "itm": {
        "x": 181144.56,
        "y": 664568.62
      }
    },
    "container": {
      "type": "מתקן טקסטיל",
      "count": 1,
      "uniqueId": "659-169"
    },
    "importDate": "27/12/2024 01:34:00"
  },
  {
    "id": 170,
    "street": {
      "name": "נחלת יצחק",
      "code": "700",
      "houseNumber": 20
    },
    "coordinates": {
      "wgs84": {
        "longitude": 34.79867398,
        "latitude": 32.07374677
      },
      "itm": {
        "x": 181144.56,
        "y": 664568.62
      }
    },
    "container": {
      "type": "מתקן אלקטרוניקה",
      "count": 1,
      "uniqueId": "659-170"
    },
    "importDate": "27/12/2024 01:34:00"
  },
  {
    "id": 171,
    "street": {
      "name": "עמק ברכה",
      "code": "702",
      "houseNumber": 29
    },
    "coordinates": {
      "wgs84": {
        "longitude": 34.7994696,
        "latitude": 32.07602824
      },
      "itm": {
        "x": 181220.63,
        "y": 664821.33
      }
    },
    "container": {
      "type": "מתקן זכוכית (מונף)",
      "count": 1,
      "uniqueId": "659-171"
    },
    "importDate": "27/12/2024 01:34:00"
  },
  {
    "id": 172,
    "street": {
      "name": "ברוריה",
      "code": "703",
      "houseNumber": 19
    },
    "coordinates": {
      "wgs84": {
        "longitude": 34.7987076,
        "latitude": 32.07787415
      },
      "itm": {
        "x": 181149.45,
        "y": 665026.3
      }
    },
    "container": {
      "type": "מתקן זכוכית (מונף)",
      "count": 1,
      "uniqueId": "659-172"
    },
    "importDate": "27/12/2024 01:34:00"
  },
  {
    "id": 173,
    "street": {
      "name": "עין זיתים",
      "code": "709",
      "houseNumber": 3
    },
    "coordinates": {
      "wgs84": {
        "longitude": 34.79717005,
        "latitude": 32.07456284
      },
      "itm": {
        "x": 181002.9,
        "y": 664659.65
      }
    },
    "container": {
      "type": "מתקן זכוכית (מונף)",
      "count": 1,
      "uniqueId": "659-173"
    },
    "importDate": "27/12/2024 01:34:00"
  },
  {
    "id": 174,
    "street": {
      "name": "תוצרת הארץ",
      "code": "723",
      "houseNumber": 14
    },
    "coordinates": {
      "wgs84": {
        "longitude": 34.79742331,
        "latitude": 32.07274368
      },
      "itm": {
        "x": 181026.05,
        "y": 664457.84
      }
    },
    "container": {
      "type": "מתקן זכוכית (מונף)",
      "count": 1,
      "uniqueId": "659-174"
    },
    "importDate": "27/12/2024 01:34:00"
  },
  {
    "id": 175,
    "street": {
      "name": "ההשכלה",
      "code": "729",
      "houseNumber": 18
    },
    "coordinates": {
      "wgs84": {
        "longitude": 34.79660886,
        "latitude": 32.06701058
      },
      "itm": {
        "x": 180946.74,
        "y": 663822.38
      }
    },
    "container": {
      "type": "מתקן טקסטיל",
      "count": 1,
      "uniqueId": "659-175"
    },
    "importDate": "27/12/2024 01:34:00"
  },
  {
    "id": 176,
    "street": {
      "name": "ההשכלה",
      "code": "729",
      "houseNumber": 18
    },
    "coordinates": {
      "wgs84": {
        "longitude": 34.79660886,
        "latitude": 32.06701058
      },
      "itm": {
        "x": 180946.74,
        "y": 663822.38
      }
    },
    "container": {
      "type": "מתקן זכוכית (מונף)",
      "count": 1,
      "uniqueId": "659-176"
    },
    "importDate": "27/12/2024 01:34:00"
  },
  {
    "id": 177,
    "street": {
      "name": "הגבורה",
      "code": "731",
      "houseNumber": 23
    },
    "coordinates": {
      "wgs84": {
        "longitude": 34.80172878,
        "latitude": 32.06591323
      },
      "itm": {
        "x": 181429.75,
        "y": 663698.86
      }
    },
    "container": {
      "type": "מתקן זכוכית (מונף)",
      "count": 1,
      "uniqueId": "659-177"
    },
    "importDate": "27/12/2024 01:34:00"
  },
  {
    "id": 178,
    "street": {
      "name": "דפנה",
      "code": "757",
      "houseNumber": 7
    },
    "coordinates": {
      "wgs84": {
        "longitude": 34.79112172,
        "latitude": 32.07861827
      },
      "itm": {
        "x": 180433.55,
        "y": 665111.52
      }
    },
    "container": {
      "type": "מתקן זכוכית (מונף)",
      "count": 1,
      "uniqueId": "659-178"
    },
    "importDate": "27/12/2024 01:34:00"
  },
  {
    "id": 179,
    "street": {
      "name": "דפנה",
      "code": "757",
      "houseNumber": 7
    },
    "coordinates": {
      "wgs84": {
        "longitude": 34.79112172,
        "latitude": 32.07861827
      },
      "itm": {
        "x": 180433.55,
        "y": 665111.52
      }
    },
    "container": {
      "type": "מתקן טקסטיל",
      "count": 1,
      "uniqueId": "659-179"
    },
    "importDate": "27/12/2024 01:34:00"
  },
  {
    "id": 180,
    "street": {
      "name": "דפנה",
      "code": "757",
      "houseNumber": 2
    },
    "coordinates": {
      "wgs84": {
        "longitude": 34.78874304,
        "latitude": 32.07838629
      },
      "itm": {
        "x": 180208.86,
        "y": 665086.65
      }
    },
    "container": {
      "type": "מתקן אריזות (סולארי)",
      "count": 1,
      "uniqueId": "659-180"
    },
    "importDate": "27/12/2024 01:34:00"
  },
  {
    "id": 181,
    "street": {
      "name": "דיין משה",
      "code": "758",
      "houseNumber": 116
    },
    "coordinates": {
      "wgs84": {
        "longitude": 34.79896284,
        "latitude": 32.06592555
      },
      "itm": {
        "x": 181168.57,
        "y": 663701.22
      }
    },
    "container": {
      "type": "מתקן טקסטיל",
      "count": 1,
      "uniqueId": "659-181"
    },
    "importDate": "27/12/2024 01:34:00"
  },
  {
    "id": 182,
    "street": {
      "name": "דיין משה",
      "code": "758",
      "houseNumber": 113
    },
    "coordinates": {
      "wgs84": {
        "longitude": 34.79901121,
        "latitude": 32.063915
      },
      "itm": {
        "x": 181172.3,
        "y": 663478.25
      }
    },
    "container": {
      "type": "מתקן טקסטיל",
      "count": 1,
      "uniqueId": "659-182"
    },
    "importDate": "27/12/2024 01:34:00"
  },
  {
    "id": 183,
    "street": {
      "name": "דיין משה",
      "code": "758",
      "houseNumber": 113
    },
    "coordinates": {
      "wgs84": {
        "longitude": 34.79901121,
        "latitude": 32.063915
      },
      "itm": {
        "x": 181172.3,
        "y": 663478.25
      }
    },
    "container": {
      "type": "מתקן זכוכית (מונף)",
      "count": 1,
      "uniqueId": "659-183"
    },
    "importDate": "27/12/2024 01:34:00"
  },
  {
    "id": 184,
    "street": {
      "name": "דם המכבים",
      "code": "759",
      "houseNumber": 22
    },
    "coordinates": {
      "wgs84": {
        "longitude": 34.80021827,
        "latitude": 32.06859716
      },
      "itm": {
        "x": 181288.23,
        "y": 663997.03
      }
    },
    "container": {
      "type": "מתקן אלקטרוניקה",
      "count": 1,
      "uniqueId": "659-184"
    },
    "importDate": "27/12/2024 01:34:00"
  },
  {
    "id": 185,
    "street": {
      "name": "פליטי הספר",
      "code": "760",
      "houseNumber": 17
    },
    "coordinates": {
      "wgs84": {
        "longitude": 34.80143348,
        "latitude": 32.06888818
      },
      "itm": {
        "x": 181403.09,
        "y": 664028.86
      }
    },
    "container": {
      "type": "מתקן טקסטיל",
      "count": 1,
      "uniqueId": "659-185"
    },
    "importDate": "27/12/2024 01:34:00"
  },
  {
    "id": 186,
    "street": {
      "name": "האספרגוס",
      "code": "762",
      "houseNumber": 1
    },
    "coordinates": {
      "wgs84": {
        "longitude": 34.80066805,
        "latitude": 32.06839773
      },
      "itm": {
        "x": 181330.62,
        "y": 663974.75
      }
    },
    "container": {
      "type": "מיכלון / מיכל כחול (מרכז מחזור)",
      "count": 2,
      "uniqueId": "659-186"
    },
    "importDate": "27/12/2024 01:34:00"
  },
  {
    "id": 187,
    "street": {
      "name": "האספרגוס",
      "code": "762",
      "houseNumber": 1
    },
    "coordinates": {
      "wgs84": {
        "longitude": 34.80066805,
        "latitude": 32.06839773
      },
      "itm": {
        "x": 181330.62,
        "y": 663974.75
      }
    },
    "container": {
      "type": "קרטוניה",
      "count": 1,
      "uniqueId": "659-187"
    },
    "importDate": "27/12/2024 01:34:00"
  },
  {
    "id": 188,
    "street": {
      "name": "בצרון",
      "code": "778",
      "houseNumber": 19
    },
    "coordinates": {
      "wgs84": {
        "longitude": 34.79782682,
        "latitude": 32.06743634
      },
      "itm": {
        "x": 181061.93,
        "y": 663869.16
      }
    },
    "container": {
      "type": "מיכלון / מיכל כחול (מרכז מחזור)",
      "count": 1,
      "uniqueId": "659-188"
    },
    "importDate": "27/12/2024 01:34:00"
  },
  {
    "id": 189,
    "street": {
      "name": "עמינדב",
      "code": "779",
      "houseNumber": 17
    },
    "coordinates": {
      "wgs84": {
        "longitude": 34.79499976,
        "latitude": 32.06480723
      },
      "itm": {
        "x": 180793.87,
        "y": 663578.62
      }
    },
    "container": {
      "type": "מתקן זכוכית (מונף)",
      "count": 1,
      "uniqueId": "659-189"
    },
    "importDate": "27/12/2024 01:34:00"
  },
  {
    "id": 190,
    "street": {
      "name": "טשרניחובסקי",
      "code": "783",
      "houseNumber": 49
    },
    "coordinates": {
      "wgs84": {
        "longitude": 34.7735605,
        "latitude": 32.07536239
      },
      "itm": {
        "x": 178774.07,
        "y": 664756.75
      }
    },
    "container": {
      "type": "מתקן זכוכית (מונף)",
      "count": 1,
      "uniqueId": "659-190"
    },
    "importDate": "27/12/2024 01:34:00"
  },
  {
    "id": 191,
    "street": {
      "name": "לסקוב חיים",
      "code": "787",
      "houseNumber": 26
    },
    "coordinates": {
      "wgs84": {
        "longitude": 34.78396313,
        "latitude": 32.07290463
      },
      "itm": {
        "x": 179755.2,
        "y": 664480.49
      }
    },
    "container": {
      "type": "מתקן אלקטרוניקה",
      "count": 1,
      "uniqueId": "659-191"
    },
    "importDate": "27/12/2024 01:34:00"
  },
  {
    "id": 192,
    "street": {
      "name": "לסקוב חיים",
      "code": "787",
      "houseNumber": 13
    },
    "coordinates": {
      "wgs84": {
        "longitude": 34.78347163,
        "latitude": 32.07297633
      },
      "itm": {
        "x": 179708.82,
        "y": 664488.62
      }
    },
    "container": {
      "type": "מתקן זכוכית (מונף)",
      "count": 1,
      "uniqueId": "659-192"
    },
    "importDate": "27/12/2024 01:34:00"
  },
  {
    "id": 193,
    "street": {
      "name": "תובל",
      "code": "799",
      "houseNumber": 11
    },
    "coordinates": {
      "wgs84": {
        "longitude": 34.79641537,
        "latitude": 32.06988391
      },
      "itm": {
        "x": 180929.68,
        "y": 664141.07
      }
    },
    "container": {
      "type": "מתקן זכוכית (מונף)",
      "count": 1,
      "uniqueId": "659-193"
    },
    "importDate": "27/12/2024 01:34:00"
  },
  {
    "id": 194,
    "street": {
      "name": "נמיר מרדכי",
      "code": "800",
      "houseNumber": 50
    },
    "coordinates": {
      "wgs84": {
        "longitude": 34.79528595,
        "latitude": 32.08505754
      },
      "itm": {
        "x": 180829.42,
        "y": 665824.09
      }
    },
    "container": {
      "type": "מתקן אלקטרוניקה",
      "count": 1,
      "uniqueId": "659-194"
    },
    "importDate": "27/12/2024 01:34:00"
  },
  {
    "id": 195,
    "street": {
      "name": "נמיר מרדכי",
      "code": "800",
      "houseNumber": 149
    },
    "coordinates": {
      "wgs84": {
        "longitude": 34.79264688,
        "latitude": 32.10089161
      },
      "itm": {
        "x": 180586.97,
        "y": 667580.89
      }
    },
    "container": {
      "type": "מתקן זכוכית (מונף)",
      "count": 1,
      "uniqueId": "659-195"
    },
    "importDate": "27/12/2024 01:34:00"
  },
  {
    "id": 196,
    "street": {
      "name": "רוזן פנחס",
      "code": "802",
      "houseNumber": 72
    },
    "coordinates": {
      "wgs84": {
        "longitude": 34.82583511,
        "latitude": 32.11468963
      },
      "itm": {
        "x": 183725.04,
        "y": 669099.11
      }
    },
    "container": {
      "type": "מיכל לאיסוף סוללות",
      "count": 1,
      "uniqueId": "659-196"
    },
    "importDate": "27/12/2024 01:34:00"
  },
  {
    "id": 197,
    "street": {
      "name": "רוזן פנחס",
      "code": "802",
      "houseNumber": 65
    },
    "coordinates": {
      "wgs84": {
        "longitude": 34.8250404,
        "latitude": 32.11471306
      },
      "itm": {
        "x": 183650.04,
        "y": 669102
      }
    },
    "container": {
      "type": "מתקן אלקטרוניקה",
      "count": 1,
      "uniqueId": "659-197"
    },
    "importDate": "27/12/2024 01:34:00"
  },
  {
    "id": 198,
    "street": {
      "name": "ולנברג ראול",
      "code": "803",
      "houseNumber": 32
    },
    "coordinates": {
      "wgs84": {
        "longitude": 34.84066933,
        "latitude": 32.11363572
      },
      "itm": {
        "x": 185124.66,
        "y": 668976.95
      }
    },
    "container": {
      "type": "מתקן אלקטרוניקה",
      "count": 1,
      "uniqueId": "659-198"
    },
    "importDate": "27/12/2024 01:34:00"
  },
  {
    "id": 199,
    "street": {
      "name": "רפידים",
      "code": "804",
      "houseNumber": 6
    },
    "coordinates": {
      "wgs84": {
        "longitude": 34.81290491,
        "latitude": 32.1092303
      },
      "itm": {
        "x": 182502.52,
        "y": 668498.34
      }
    },
    "container": {
      "type": "מתקן טקסטיל",
      "count": 1,
      "uniqueId": "659-199"
    },
    "importDate": "27/12/2024 01:34:00"
  },
  {
    "id": 200,
    "street": {
      "name": "רפידים",
      "code": "804",
      "houseNumber": 6
    },
    "coordinates": {
      "wgs84": {
        "longitude": 34.81290491,
        "latitude": 32.1092303
      },
      "itm": {
        "x": 182502.52,
        "y": 668498.34
      }
    },
    "container": {
      "type": "מתקן זכוכית (מונף)",
      "count": 1,
      "uniqueId": "659-200"
    },
    "importDate": "27/12/2024 01:34:00"
  },
  {
    "id": 201,
    "street": {
      "name": "רפידים",
      "code": "804",
      "houseNumber": 6
    },
    "coordinates": {
      "wgs84": {
        "longitude": 34.81290491,
        "latitude": 32.1092303
      },
      "itm": {
        "x": 182502.52,
        "y": 668498.34
      }
    },
    "container": {
      "type": "קרטוניה",
      "count": 1,
      "uniqueId": "659-201"
    },
    "importDate": "27/12/2024 01:34:00"
  },
  {
    "id": 202,
    "street": {
      "name": "שלונסקי אברהם",
      "code": "805",
      "houseNumber": 6
    },
    "coordinates": {
      "wgs84": {
        "longitude": 34.81900756,
        "latitude": 32.11737642
      },
      "itm": {
        "x": 183081.74,
        "y": 669399.49
      }
    },
    "container": {
      "type": "מתקן אלקטרוניקה",
      "count": 1,
      "uniqueId": "659-202"
    },
    "importDate": "27/12/2024 01:34:00"
  },
  {
    "id": 203,
    "street": {
      "name": "מבצע קדש",
      "code": "806",
      "houseNumber": 17
    },
    "coordinates": {
      "wgs84": {
        "longitude": 34.81503774,
        "latitude": 32.11372042
      },
      "itm": {
        "x": 182705.62,
        "y": 668995.49
      }
    },
    "container": {
      "type": "מתקן זכוכית (מונף)",
      "count": 1,
      "uniqueId": "659-203"
    },
    "importDate": "27/12/2024 01:34:00"
  },
  {
    "id": 204,
    "street": {
      "name": "משמר הירדן",
      "code": "807",
      "houseNumber": 61
    },
    "coordinates": {
      "wgs84": {
        "longitude": 34.8321309,
        "latitude": 32.11207189
      },
      "itm": {
        "x": 184318.22,
        "y": 668806.58
      }
    },
    "container": {
      "type": "מתקן זכוכית (מונף)",
      "count": 1,
      "uniqueId": "659-204"
    },
    "importDate": "27/12/2024 01:34:00"
  },
  {
    "id": 205,
    "street": {
      "name": "רומנו מרדכי",
      "code": "808",
      "houseNumber": 38
    },
    "coordinates": {
      "wgs84": {
        "longitude": 34.81894666,
        "latitude": 32.12024284
      },
      "itm": {
        "x": 183077.12,
        "y": 669717.37
      }
    },
    "container": {
      "type": "מתקן זכוכית (מונף)",
      "count": 1,
      "uniqueId": "659-205"
    },
    "importDate": "27/12/2024 01:34:00"
  },
  {
    "id": 206,
    "street": {
      "name": "רוזאניס",
      "code": "809",
      "houseNumber": 16
    },
    "coordinates": {
      "wgs84": {
        "longitude": 34.81420882,
        "latitude": 32.12103775
      },
      "itm": {
        "x": 182630.32,
        "y": 669807.21
      }
    },
    "container": {
      "type": "קרטוניה",
      "count": 1,
      "uniqueId": "659-206"
    },
    "importDate": "27/12/2024 01:34:00"
  },
  {
    "id": 207,
    "street": {
      "name": "רוזאניס",
      "code": "809",
      "houseNumber": 16
    },
    "coordinates": {
      "wgs84": {
        "longitude": 34.81420882,
        "latitude": 32.12103775
      },
      "itm": {
        "x": 182630.32,
        "y": 669807.21
      }
    },
    "container": {
      "type": "מתקן טקסטיל",
      "count": 1,
      "uniqueId": "659-207"
    },
    "importDate": "27/12/2024 01:34:00"
  },
  {
    "id": 208,
    "street": {
      "name": "מגדל שרשן",
      "code": "813",
      "houseNumber": 18
    },
    "coordinates": {
      "wgs84": {
        "longitude": 34.81376212,
        "latitude": 32.11762533
      },
      "itm": {
        "x": 182586.8,
        "y": 669428.97
      }
    },
    "container": {
      "type": "מתקן טקסטיל",
      "count": 1,
      "uniqueId": "659-208"
    },
    "importDate": "27/12/2024 01:34:00"
  },
  {
    "id": 209,
    "street": {
      "name": "מגדל שרשן",
      "code": "813",
      "houseNumber": 18
    },
    "coordinates": {
      "wgs84": {
        "longitude": 34.81376212,
        "latitude": 32.11762533
      },
      "itm": {
        "x": 182586.8,
        "y": 669428.97
      }
    },
    "container": {
      "type": "מתקן זכוכית (מונף)",
      "count": 1,
      "uniqueId": "659-209"
    },
    "importDate": "27/12/2024 01:34:00"
  },
  {
    "id": 210,
    "street": {
      "name": "קדש ברנע",
      "code": "817",
      "houseNumber": 14
    },
    "coordinates": {
      "wgs84": {
        "longitude": 34.81425387,
        "latitude": 32.11188466
      },
      "itm": {
        "x": 182630.9,
        "y": 668792.2
      }
    },
    "container": {
      "type": "מתקן זכוכית (מונף)",
      "count": 1,
      "uniqueId": "659-210"
    },
    "importDate": "27/12/2024 01:34:00"
  },
  {
    "id": 211,
    "street": {
      "name": "קדש ברנע",
      "code": "817",
      "houseNumber": 14
    },
    "coordinates": {
      "wgs84": {
        "longitude": 34.81425387,
        "latitude": 32.11188466
      },
      "itm": {
        "x": 182630.9,
        "y": 668792.2
      }
    },
    "container": {
      "type": "קרטוניה",
      "count": 1,
      "uniqueId": "659-211"
    },
    "importDate": "27/12/2024 01:34:00"
  },
  {
    "id": 212,
    "street": {
      "name": "קדש ברנע",
      "code": "817",
      "houseNumber": 1
    },
    "coordinates": {
      "wgs84": {
        "longitude": 34.81499513,
        "latitude": 32.11343222
      },
      "itm": {
        "x": 182701.48,
        "y": 668963.55
      }
    },
    "container": {
      "type": "קרטוניה",
      "count": 1,
      "uniqueId": "659-212"
    },
    "importDate": "27/12/2024 01:34:00"
  },
  {
    "id": 213,
    "street": {
      "name": "קהילת לודג'",
      "code": "820",
      "houseNumber": 28
    },
    "coordinates": {
      "wgs84": {
        "longitude": 34.81625104,
        "latitude": 32.10747967
      },
      "itm": {
        "x": 182817.64,
        "y": 668303.02
      }
    },
    "container": {
      "type": "מיכלון / מיכל כתום (מרכז מחזור)",
      "count": 1,
      "uniqueId": "659-213"
    },
    "importDate": "27/12/2024 01:34:00"
  },
  {
    "id": 214,
    "street": {
      "name": "קהילת לודג'",
      "code": "820",
      "houseNumber": 28
    },
    "coordinates": {
      "wgs84": {
        "longitude": 34.81625104,
        "latitude": 32.10747967
      },
      "itm": {
        "x": 182817.64,
        "y": 668303.02
      }
    },
    "container": {
      "type": "מיכלון / מיכל כחול (מרכז מחזור)",
      "count": 1,
      "uniqueId": "659-214"
    },
    "importDate": "27/12/2024 01:34:00"
  },
  {
    "id": 215,
    "street": {
      "name": "קהילת לודג'",
      "code": "820",
      "houseNumber": 28
    },
    "coordinates": {
      "wgs84": {
        "longitude": 34.81625104,
        "latitude": 32.10747967
      },
      "itm": {
        "x": 182817.64,
        "y": 668303.02
      }
    },
    "container": {
      "type": "מתקן טקסטיל",
      "count": 1,
      "uniqueId": "659-215"
    },
    "importDate": "27/12/2024 01:34:00"
  },
  {
    "id": 216,
    "street": {
      "name": "קהילת ורשה",
      "code": "821",
      "houseNumber": 56
    },
    "coordinates": {
      "wgs84": {
        "longitude": 34.82231464,
        "latitude": 32.11015341
      },
      "itm": {
        "x": 183391,
        "y": 668597.35
      }
    },
    "container": {
      "type": "קרטוניה",
      "count": 1,
      "uniqueId": "659-216"
    },
    "importDate": "27/12/2024 01:34:00"
  },
  {
    "id": 217,
    "street": {
      "name": "קהילת ורשה",
      "code": "821",
      "houseNumber": 56
    },
    "coordinates": {
      "wgs84": {
        "longitude": 34.82231464,
        "latitude": 32.11015341
      },
      "itm": {
        "x": 183391,
        "y": 668597.35
      }
    },
    "container": {
      "type": "מתקן זכוכית (מונף)",
      "count": 1,
      "uniqueId": "659-217"
    },
    "importDate": "27/12/2024 01:34:00"
  },
  {
    "id": 218,
    "street": {
      "name": "קהילת ריגה",
      "code": "823",
      "houseNumber": 11
    },
    "coordinates": {
      "wgs84": {
        "longitude": 34.82130201,
        "latitude": 32.11470429
      },
      "itm": {
        "x": 183297.22,
        "y": 669102.36
      }
    },
    "container": {
      "type": "מתקן זכוכית (מונף)",
      "count": 1,
      "uniqueId": "659-218"
    },
    "importDate": "27/12/2024 01:34:00"
  },
  {
    "id": 219,
    "street": {
      "name": "תבואות הארץ",
      "code": "835",
      "houseNumber": 3
    },
    "coordinates": {
      "wgs84": {
        "longitude": 34.82671648,
        "latitude": 32.11135521
      },
      "itm": {
        "x": 183806.92,
        "y": 668729.04
      }
    },
    "container": {
      "type": "מתקן זכוכית (מונף)",
      "count": 1,
      "uniqueId": "659-219"
    },
    "importDate": "27/12/2024 01:34:00"
  },
  {
    "id": 220,
    "street": {
      "name": "אשכנזי ישראל",
      "code": "838",
      "houseNumber": 30
    },
    "coordinates": {
      "wgs84": {
        "longitude": 34.82993305,
        "latitude": 32.11034322
      },
      "itm": {
        "x": 184110.12,
        "y": 668615.67
      }
    },
    "container": {
      "type": "מתקן זכוכית (מונף)",
      "count": 1,
      "uniqueId": "659-220"
    },
    "importDate": "27/12/2024 01:34:00"
  },
  {
    "id": 221,
    "street": {
      "name": "קהילת סלוניקי",
      "code": "850",
      "houseNumber": 5
    },
    "coordinates": {
      "wgs84": {
        "longitude": 34.82437666,
        "latitude": 32.1141265
      },
      "itm": {
        "x": 183587.17,
        "y": 669037.19
      }
    },
    "container": {
      "type": "מתקן זכוכית (מונף)",
      "count": 1,
      "uniqueId": "659-221"
    },
    "importDate": "27/12/2024 01:34:00"
  },
  {
    "id": 222,
    "street": {
      "name": "קהילת קייב",
      "code": "859",
      "houseNumber": 17
    },