[
  {
    "id": 5699,
    "city": "נתניה",
    "street": "לוי אשכול",
    "houseNumber": "2",
    "containerTypes": [
      "glass"
    ],
    "rawDate": "05/05/2024",
    "date": "2024-05-04T21:00:00.000Z",
    "location": {
      "longitude": 34.84758088556409,
      "latitude": 32.29895402020623
    },
    "externalId": 5699
  },
  {
    "id": 3263,
    "city": "נתניה",
    "street": "בן אב\"י",
    "houseNumber": "21",
    "containerTypes": [
      "glass"
    ],
    "rawDate": "05/05/2024",
    "date": "2024-05-04T21:00:00.000Z",
    "location": {
      "longitude": 34.85000071268588,
      "latitude": 32.31856414362792
    },
    "externalId": 3263
  },
  {
    "id": 5698,
    "city": "נתניה",
    "street": "ניל\"י",
    "houseNumber": "36",
    "containerTypes": [
      "glass"
    ],
    "rawDate": "05/05/2024",
    "date": "2024-05-04T21:00:00.000Z",
    "location": {
      "longitude": 34.86093072192852,
      "latitude": 32.31918421829984
    },
    "externalId": 5698
  },
  {
    "id": 3323,
    "city": "נתניה",
    "street": "אוסישקין",
    "houseNumber": "38",
    "containerTypes": [
      "glass"
    ],
    "rawDate": "05/05/2024",
    "date": "2024-05-04T21:00:00.000Z",
    "location": {
      "longitude": 34.84992064867208,
      "latitude": 32.32569418210847
    },
    "externalId": 3323
  },
  {
    "id": 5686,
    "city": "נתניה",
    "street": "שדרות ניצה",
    "houseNumber": "26",
    "containerTypes": [
      "glass"
    ],
    "rawDate": "05/05/2024",
    "date": "2024-05-04T21:00:00.000Z",
    "location": {
      "longitude": 34.85218051669814,
      "latitude": 32.34062427863854
    },
    "externalId": 5686
  },
  {
    "id": 3269,
    "city": "נתניה",
    "street": "פרופסור ברודצקי",
    "houseNumber": "20",
    "containerTypes": [
      "glass"
    ],
    "rawDate": "05/05/2024",
    "date": "2024-05-04T21:00:00.000Z",
    "location": {
      "longitude": 34.854250683774914,
      "latitude": 32.32239419197058
    },
    "externalId": 3269
  },
  {
    "id": 5684,
    "city": "נתניה",
    "street": "בורוכוב",
    "houseNumber": "16",
    "containerTypes": [
      "glass"
    ],
    "rawDate": "05/05/2024",
    "date": "2024-05-04T21:00:00.000Z",
    "location": {
      "longitude": 34.85560055092627,
      "latitude": 32.33735428318466
    },
    "externalId": 5684
  },
  {
    "id": 3240,
    "city": "נתניה",
    "street": "נווה שלום",
    "houseNumber": "34",
    "containerTypes": [
      "glass"
    ],
    "rawDate": "05/05/2024",
    "date": "2024-05-04T21:00:00.000Z",
    "location": {
      "longitude": 34.85931047175992,
      "latitude": 32.346754358294284
    },
    "externalId": 3240
  },
  {
    "id": 3249,
    "city": "נתניה",
    "street": "עמק חפר",
    "houseNumber": "20",
    "containerTypes": [
      "glass"
    ],
    "rawDate": "05/05/2024",
    "date": "2024-05-04T21:00:00.000Z",
    "location": {
      "longitude": 34.86628055291623,
      "latitude": 32.33882436041628
    },
    "externalId": 3249
  },
  {
    "id": 3134,
    "city": "נתניה",
    "street": "הגולן",
    "houseNumber": "8",
    "containerTypes": [
      "glass"
    ],
    "rawDate": "05/05/2024",
    "date": "2024-05-04T21:00:00.000Z",
    "location": {
      "longitude": 34.87115084051677,
      "latitude": 32.30766422102302
    },
    "externalId": 3134
  },
  {
    "id": 3253,
    "city": "נתניה",
    "street": "ד\"ר מאיר אבנר",
    "houseNumber": "28",
    "containerTypes": [
      "glass"
    ],
    "rawDate": "05/05/2024",
    "date": "2024-05-04T21:00:00.000Z",
    "location": {
      "longitude": 34.8743006819584,
      "latitude": 32.32571434046086
    },
    "externalId": 3253
  },
  {
    "id": 3212,
    "city": "נתניה",
    "street": "שדרות ז'בוטינסקי",
    "houseNumber": "46",
    "containerTypes": [
      "glass"
    ],
    "rawDate": "05/05/2024",
    "date": "2024-05-04T21:00:00.000Z",
    "location": {
      "longitude": 34.84725070198725,
      "latitude": 32.3192941297111
    },
    "externalId": 3212
  },
  {
    "id": 3273,
    "city": "נתניה",
    "street": "פתח תקווה",
    "houseNumber": "67",
    "containerTypes": [
      "glass"
    ],
    "rawDate": "05/05/2024",
    "date": "2024-05-04T21:00:00.000Z",
    "location": {
      "longitude": 34.85762072549676,
      "latitude": 32.31838419219067
    },
    "externalId": 3273
  },
  {
    "id": 4415,
    "city": "נתניה",
    "street": "הקליר",
    "houseNumber": "6",
    "containerTypes": [
      "glass"
    ],
    "rawDate": "05/05/2024",
    "date": "2024-05-04T21:00:00.000Z",
    "location": {
      "longitude": 34.85917075993669,
      "latitude": 32.31473418249097
    },
    "externalId": 4415
  },
  {
    "id": 3259,
    "city": "נתניה",
    "street": "גד מכנס",
    "houseNumber": "14",
    "containerTypes": [
      "glass"
    ],
    "rawDate": "05/05/2024",
    "date": "2024-05-04T21:00:00.000Z",
    "location": {
      "longitude": 34.84891062579613,
      "latitude": 32.328034188098805
    },
    "externalId": 3259
  },
  {
    "id": 5693,
    "city": "נתניה",
    "street": "אבא אחימאיר",
    "houseNumber": "6",
    "containerTypes": [
      "glass"
    ],
    "rawDate": "05/05/2024",
    "date": "2024-05-04T21:00:00.000Z",
    "location": {
      "longitude": 34.8518206978233,
      "latitude": 32.320474166285194
    },
    "externalId": 5693
  },
  {
    "id": 4402,
    "city": "נתניה",
    "street": "ביאליק",
    "houseNumber": "13",
    "containerTypes": [
      "glass"
    ],
    "rawDate": "05/05/2024",
    "date": "2024-05-04T21:00:00.000Z",
    "location": {
      "longitude": 34.853050599287364,
      "latitude": 32.33160423518111
    },
    "externalId": 4402
  },
  {
    "id": 3307,
    "city": "נתניה",
    "street": "אנדריוס",
    "houseNumber": "11",
    "containerTypes": [
      "glass"
    ],
    "rawDate": "05/05/2024",
    "date": "2024-05-04T21:00:00.000Z",
    "location": {
      "longitude": 34.85533056905697,
      "latitude": 32.33533427005197
    },
    "externalId": 3307
  },
  {
    "id": 3305,
    "city": "נתניה",
    "street": "שדרות חיים וייצמן",
    "houseNumber": "74",
    "containerTypes": [
      "glass"
    ],
    "rawDate": "05/05/2024",
    "date": "2024-05-04T21:00:00.000Z",
    "location": {
      "longitude": 34.858900558743386,
      "latitude": 32.3370843033156
    },
    "externalId": 3305
  },
  {
    "id": 3251,
    "city": "נתניה",
    "street": "אפרים אהרונסון",
    "houseNumber": "20",
    "containerTypes": [
      "glass"
    ],
    "rawDate": "05/05/2024",
    "date": "2024-05-04T21:00:00.000Z",
    "location": {
      "longitude": 34.86177070711595,
      "latitude": 32.3210042332459
    },
    "externalId": 3251
  },
  {
    "id": 3252,
    "city": "נתניה",
    "street": "מרדכי אנילביץ'",
    "houseNumber": "13",
    "containerTypes": [
      "glass"
    ],
    "rawDate": "05/05/2024",
    "date": "2024-05-04T21:00:00.000Z",
    "location": {
      "longitude": 34.86486070498183,
      "latitude": 32.32171425733446
    },
    "externalId": 3252
  },
  {
    "id": 5690,
    "city": "נתניה",
    "street": "דב הוז",
    "houseNumber": "1",
    "containerTypes": [
      "glass"
    ],
    "rawDate": "05/05/2024",
    "date": "2024-05-04T21:00:00.000Z",
    "location": {
      "longitude": 34.86612057377527,
      "latitude": 32.33649434666491
    },
    "externalId": 5690
  },
  {
    "id": 3239,
    "city": "נתניה",
    "street": "עמק חפר",
    "houseNumber": "90",
    "containerTypes": [
      "glass"
    ],
    "rawDate": "05/05/2024",
    "date": "2024-05-04T21:00:00.000Z",
    "location": {
      "longitude": 34.869050507446,
      "latitude": 32.3443744090805
    },
    "externalId": 3239
  },
  {
    "id": 5702,
    "city": "נתניה",
    "street": "הר מירון",
    "houseNumber": "9",
    "containerTypes": [
      "glass"
    ],
    "rawDate": "05/05/2024",
    "date": "2024-05-04T21:00:00.000Z",
    "location": {
      "longitude": 34.87061082880182,
      "latitude": 32.30884422432238
    },
    "externalId": 5702
  },
  {
    "id": 5695,
    "city": "נתניה",
    "street": "שדרות בנימין",
    "houseNumber": "60",
    "containerTypes": [
      "glass"
    ],
    "rawDate": "05/05/2024",
    "date": "2024-05-04T21:00:00.000Z",
    "location": {
      "longitude": 34.85476070885898,
      "latitude": 32.31972418074908
    },
    "externalId": 5695
  },
  {
    "id": 3220,
    "city": "נתניה",
    "street": "נחום",
    "houseNumber": "21",
    "containerTypes": [
      "glass"
    ],
    "rawDate": "05/05/2024",
    "date": "2024-05-04T21:00:00.000Z",
    "location": {
      "longitude": 34.856310890270734,
      "latitude": 32.29983408234343
    },
    "externalId": 3220
  },
  {
    "id": 3265,
    "city": "נתניה",
    "street": "השבעה",
    "houseNumber": "16",
    "containerTypes": [
      "glass"
    ],
    "rawDate": "05/05/2024",
    "date": "2024-05-04T21:00:00.000Z",
    "location": {
      "longitude": 34.849870689579554,
      "latitude": 32.32115415730065
    },
    "externalId": 3265
  },
  {
    "id": 3271,
    "city": "נתניה",
    "street": "שדרות בנימין",
    "houseNumber": "29",
    "containerTypes": [
      "glass"
    ],
    "rawDate": "05/05/2024",
    "date": "2024-05-04T21:00:00.000Z",
    "location": {
      "longitude": 34.856150671833134,
      "latitude": 32.32405421352451
    },
    "externalId": 3271
  },
  {
    "id": 3325,
    "city": "נתניה",
    "street": "שרת",
    "houseNumber": "5",
    "containerTypes": [
      "glass"
    ],
    "rawDate": "05/05/2024",
    "date": "2024-05-04T21:00:00.000Z",
    "location": {
      "longitude": 34.860130553506565,
      "latitude": 32.33787431551266
    },
    "externalId": 3325
  },
  {
    "id": 5697,
    "city": "נתניה",
    "street": "הפורצים",
    "houseNumber": "16",
    "containerTypes": [
      "glass"
    ],
    "rawDate": "05/05/2024",
    "date": "2024-05-04T21:00:00.000Z",
    "location": {
      "longitude": 34.86279067631142,
      "latitude": 32.3246542601233
    },
    "externalId": 5697
  },
  {
    "id": 3238,
    "city": "נתניה",
    "street": "שמעון בר יוחאי",
    "houseNumber": "2",
    "containerTypes": [
      "glass"
    ],
    "rawDate": "05/05/2024",
    "date": "2024-05-04T21:00:00.000Z",
    "location": {
      "longitude": 34.86846053961717,
      "latitude": 32.3406643851217
    },
    "externalId": 3238
  },
  {
    "id": 3215,
    "city": "נתניה",
    "street": "שדרות בן גוריון",
    "houseNumber": "5225",
    "containerTypes": [
      "glass"
    ],
    "rawDate": "05/05/2024",
    "date": "2024-05-04T21:00:00.000Z",
    "location": {
      "longitude": 34.84428083428094,
      "latitude": 32.304174028008305
    },
    "externalId": 3215
  },
  {
    "id": 3213,
    "city": "נתניה",
    "street": "הגילה",
    "houseNumber": "15",
    "containerTypes": [
      "glass"
    ],
    "rawDate": "05/05/2024",
    "date": "2024-05-04T21:00:00.000Z",
    "location": {
      "longitude": 34.846730751544776,
      "latitude": 32.31378409651717
    },
    "externalId": 3213
  },
  {
    "id": 3264,
    "city": "נתניה",
    "street": "סמילנסקי",
    "houseNumber": "81",
    "containerTypes": [
      "glass"
    ],
    "rawDate": "05/05/2024",
    "date": "2024-05-04T21:00:00.000Z",
    "location": {
      "longitude": 34.848770688137044,
      "latitude": 32.32109414935134
    },
    "externalId": 3264
  },
  {
    "id": 3260,
    "city": "נתניה",
    "street": "גד מכנס",
    "houseNumber": "28",
    "containerTypes": [
      "glass"
    ],
    "rawDate": "05/05/2024",
    "date": "2024-05-04T21:00:00.000Z",
    "location": {
      "longitude": 34.84888065005619,
      "latitude": 32.32536417336157
    },
    "externalId": 3260
  },
  {
    "id": 3311,
    "city": "נתניה",
    "street": "דוד המלך",
    "houseNumber": "16",
    "containerTypes": [
      "glass"
    ],
    "rawDate": "05/05/2024",
    "date": "2024-05-04T21:00:00.000Z",
    "location": {
      "longitude": 34.850950588292605,
      "latitude": 32.3324842262525
    },
    "externalId": 3311
  },
  {
    "id": 3310,
    "city": "נתניה",
    "street": "שדרות ניצה",
    "houseNumber": "10",
    "containerTypes": [
      "glass"
    ],
    "rawDate": "05/05/2024",
    "date": "2024-05-04T21:00:00.000Z",
    "location": {
      "longitude": 34.85148054785181,
      "latitude": 32.33713425505454
    },
    "externalId": 3310
  },
  {
    "id": 3312,
    "city": "נתניה",
    "street": "עמנואל מול",
    "houseNumber": "2",
    "containerTypes": [
      "glass"
    ],
    "rawDate": "05/05/2024",
    "date": "2024-05-04T21:00:00.000Z",
    "location": {
      "longitude": 34.8527805546986,
      "latitude": 32.33659426053017
    },
    "externalId": 3312
  },
  {
    "id": 3267,
    "city": "נתניה",
    "street": "שדרות ירושלים",
    "houseNumber": "32",
    "containerTypes": [
      "glass"
    ],
    "rawDate": "05/05/2024",
    "date": "2024-05-04T21:00:00.000Z",
    "location": {
      "longitude": 34.854780676189755,
      "latitude": 32.323344200975285
    },
    "externalId": 3267
  },
  {
    "id": 5683,
    "city": "נתניה",
    "street": "יהודה הנשיא",
    "houseNumber": "24",
    "containerTypes": [
      "glass"
    ],
    "rawDate": "05/05/2024",
    "date": "2024-05-04T21:00:00.000Z",
    "location": {
      "longitude": 34.856070544849516,
      "latitude": 32.33818429056103
    },
    "externalId": 5683
  },
  {
    "id": 3243,
    "city": "נתניה",
    "street": "השושנה",
    "houseNumber": "11",
    "containerTypes": [
      "glass"
    ],
    "rawDate": "05/05/2024",
    "date": "2024-05-04T21:00:00.000Z",
    "location": {
      "longitude": 34.858340447187416,
      "latitude": 32.349324366103644
    },
    "externalId": 3243
  },
  {
    "id": 3248,
    "city": "נתניה",
    "street": "אלקלעי",
    "houseNumber": "11",
    "containerTypes": [
      "glass"
    ],
    "rawDate": "05/05/2024",
    "date": "2024-05-04T21:00:00.000Z",
    "location": {
      "longitude": 34.87006061515858,
      "latitude": 32.33256435041489
    },
    "externalId": 3248
  },
  {
    "id": 3135,
    "city": "נתניה",
    "street": "הגולן",
    "houseNumber": "11",
    "containerTypes": [
      "glass"
    ],
    "rawDate": "05/05/2024",
    "date": "2024-05-04T21:00:00.000Z",
    "location": {
      "longitude": 34.87235083915853,
      "latitude": 32.30795423020106
    },
    "externalId": 3135
  },
  {
    "id": 3156,
    "city": "נתניה",
    "street": "הרטום",
    "houseNumber": "34",
    "containerTypes": [
      "glass"
    ],
    "rawDate": "05/05/2024",
    "date": "2024-05-04T21:00:00.000Z",
    "location": {
      "longitude": 34.87308082531381,
      "latitude": 32.30966424494811
    },
    "externalId": 3156
  },
  {
    "id": 3227,
    "city": "נתניה",
    "street": "הקליר",
    "houseNumber": "7",
    "containerTypes": [
      "glass"
    ],
    "rawDate": "05/05/2024",
    "date": "2024-05-04T21:00:00.000Z",
    "location": {
      "longitude": 34.859540764657844,
      "latitude": 32.3142641821396
    },
    "externalId": 3227
  },
  {
    "id": 5687,
    "city": "נתניה",
    "street": "ברוך רם",
    "houseNumber": "13",
    "containerTypes": [
      "glass"
    ],
    "rawDate": "05/05/2024",
    "date": "2024-05-04T21:00:00.000Z",
    "location": {
      "longitude": 34.84656068959792,
      "latitude": 32.32063413225796
    },
    "externalId": 5687
  },
  {
    "id": 5691,
    "city": "נתניה",
    "street": "שדרות ז'בוטינסקי",
    "houseNumber": "27",
    "containerTypes": [
      "glass"
    ],
    "rawDate": "05/05/2024",
    "date": "2024-05-04T21:00:00.000Z",
    "location": {
      "longitude": 34.8479706788999,
      "latitude": 32.32198414906544
    },
    "externalId": 5691
  },
  {
    "id": 3262,
    "city": "נתניה",
    "street": "ראשון לציון",
    "houseNumber": "17",
    "containerTypes": [
      "glass"
    ],
    "rawDate": "05/05/2024",
    "date": "2024-05-04T21:00:00.000Z",
    "location": {
      "longitude": 34.84955063334282,
      "latitude": 32.32727418844023
    },
    "externalId": 3262
  },
  {
    "id": 5998,
    "city": "נתניה",
    "street": "אוסישקין",
    "houseNumber": "29",
    "containerTypes": [
      "glass"
    ],
    "rawDate": "05/05/2024",
    "date": "2024-05-04T21:00:00.000Z",
    "location": {
      "longitude": 34.85064062238792,
      "latitude": 32.32872420354176
    },
    "externalId": 5998
  },
  {
    "id": 3309,
    "city": "נתניה",
    "street": "שלמה המלך",
    "houseNumber": "58",
    "containerTypes": [
      "glass"
    ],
    "rawDate": "05/05/2024",
    "date": "2024-05-04T21:00:00.000Z",
    "location": {
      "longitude": 34.85353052066865,
      "latitude": 32.34046428682135
    },
    "externalId": 3309
  },
  {
    "id": 3247,
    "city": "נתניה",
    "street": "דברי חיים",
    "houseNumber": "20",
    "containerTypes": [
      "glass"
    ],
    "rawDate": "05/05/2024",
    "date": "2024-05-04T21:00:00.000Z",
    "location": {
      "longitude": 34.85648048271149,
      "latitude": 32.34516433158571
    },
    "externalId": 3247
  },
  {
    "id": 3316,
    "city": "נתניה",
    "street": "משה איכילוב",
    "houseNumber": "6",
    "containerTypes": [
      "glass"
    ],
    "rawDate": "05/05/2024",
    "date": "2024-05-04T21:00:00.000Z",
    "location": {
      "longitude": 34.85761054211582,
      "latitude": 32.338724303683364
    },
    "externalId": 3316
  },
  {
    "id": 3246,
    "city": "נתניה",
    "street": "עובדיה מברטנורא",
    "houseNumber": "2",
    "containerTypes": [
      "glass"
    ],
    "rawDate": "05/05/2024",
    "date": "2024-05-04T21:00:00.000Z",
    "location": {
      "longitude": 34.857810512752664,
      "latitude": 32.34198432270712
    },
    "externalId": 3246
  },
  {
    "id": 3318,
    "city": "נתניה",
    "street": "משה שפירא",
    "houseNumber": "7",
    "containerTypes": [
      "glass"
    ],
    "rawDate": "05/05/2024",
    "date": "2024-05-04T21:00:00.000Z",
    "location": {
      "longitude": 34.859710581567555,
      "latitude": 32.334664295347274
    },
    "externalId": 3318
  },
  {
    "id": 5696,
    "city": "נתניה",
    "street": "גבע",
    "houseNumber": "37",
    "containerTypes": [
      "glass"
    ],
    "rawDate": "05/05/2024",
    "date": "2024-05-04T21:00:00.000Z",
    "location": {
      "longitude": 34.86123068245266,
      "latitude": 32.32362424472298
    },
    "externalId": 5696
  },
  {
    "id": 3319,
    "city": "נתניה",
    "street": "נחום סוקולוב",
    "houseNumber": "43",
    "containerTypes": [
      "glass"
    ],
    "rawDate": "05/05/2024",
    "date": "2024-05-04T21:00:00.000Z",
    "location": {
      "longitude": 34.86502053183101,
      "latitude": 32.341024364127236
    },
    "externalId": 3319
  },
  {
    "id": 3133,
    "city": "נתניה",
    "street": "הרטום",
    "houseNumber": "40",
    "containerTypes": [
      "glass"
    ],
    "rawDate": "05/05/2024",
    "date": "2024-05-04T21:00:00.000Z",
    "location": {
      "longitude": 34.87110082003596,
      "latitude": 32.30992423367007
    },
    "externalId": 3133
  },
  {
    "id": 5688,
    "city": "נתניה",
    "street": "פייר קניג",
    "houseNumber": "33",
    "containerTypes": [
      "glass"
    ],
    "rawDate": "05/05/2024",
    "date": "2024-05-04T21:00:00.000Z",
    "location": {
      "longitude": 34.84425081803031,
      "latitude": 32.30593403721342
    },
    "externalId": 5688
  },
  {
    "id": 3228,
    "city": "נתניה",
    "street": "אברהם אבן עזרא",
    "houseNumber": "18",
    "containerTypes": [
      "glass"
    ],
    "rawDate": "05/05/2024",
    "date": "2024-05-04T21:00:00.000Z",
    "location": {
      "longitude": 34.8576407693685,
      "latitude": 32.313484164969395
    },
    "externalId": 3228
  },
  {
    "id": 5468,
    "city": "נתניה",
    "street": "השל\"ה הקדוש",
    "houseNumber": "1",
    "containerTypes": [
      "glass"
    ],
    "rawDate": "05/05/2024",
    "date": "2024-05-04T21:00:00.000Z",
    "location": {
      "longitude": 34.86257077435044,
      "latitude": 32.31363419864296
    },
    "externalId": 5468
  },
  {
    "id": 3322,
    "city": "נתניה",
    "street": "דיזנגוף",
    "houseNumber": "47",
    "containerTypes": [
      "glass"
    ],
    "rawDate": "05/05/2024",
    "date": "2024-05-04T21:00:00.000Z",
    "location": {
      "longitude": 34.85220063554486,
      "latitude": 32.32748420727331
    },
    "externalId": 3322
  },
  {
    "id": 3268,
    "city": "נתניה",
    "street": "שדרות ירושלים",
    "houseNumber": "13",
    "containerTypes": [
      "glass"
    ],
    "rawDate": "05/05/2024",
    "date": "2024-05-04T21:00:00.000Z",
    "location": {
      "longitude": 34.85233066296813,
      "latitude": 32.32446419073283
    },
    "externalId": 3268
  },
  {
    "id": 5685,
    "city": "נתניה",
    "street": "מלחמת ששת הימים",
    "houseNumber": "2",
    "containerTypes": [
      "glass"
    ],
    "rawDate": "05/05/2024",
    "date": "2024-05-04T21:00:00.000Z",
    "location": {
      "longitude": 34.856000605800254,
      "latitude": 32.33138425272093
    },
    "externalId": 5685
  },
  {
    "id": 3306,
    "city": "נתניה",
    "street": "א.ד. גורדון",
    "houseNumber": "46",
    "containerTypes": [
      "glass"
    ],
    "rawDate": "05/05/2024",
    "date": "2024-05-04T21:00:00.000Z",
    "location": {
      "longitude": 34.857630576497094,
      "latitude": 32.33487428219242
    },
    "externalId": 3306
  },
  {
    "id": 3314,
    "city": "נתניה",
    "street": "שדרות חיים וייצמן",
    "houseNumber": "17",
    "containerTypes": [
      "glass"
    ],
    "rawDate": "05/05/2024",
    "date": "2024-05-04T21:00:00.000Z",
    "location": {
      "longitude": 34.85823061031182,
      "latitude": 32.33125426635587
    },
    "externalId": 3314
  },
  {
    "id": 5681,
    "city": "נתניה",
    "street": "לא ידוע",
    "houseNumber": "לא ידוע",
    "containerTypes": [
      "glass"
    ],
    "rawDate": "05/05/2024",
    "date": "2024-05-04T21:00:00.000Z",
    "location": {
      "longitude": 34.858700590998694,
      "latitude": 32.33347428156
    },
    "externalId": 5681
  },
  {
    "id": 3241,
    "city": "נתניה",
    "street": "הגפן",
    "houseNumber": "17",
    "containerTypes": [
      "glass"
    ],
    "rawDate": "05/05/2024",
    "date": "2024-05-04T21:00:00.000Z",
    "location": {
      "longitude": 34.86071044947436,
      "latitude": 32.349444382814475
    },
    "externalId": 3241
  },
  {
    "id": 3320,
    "city": "נתניה",
    "street": "קמיל הויסמנס",
    "houseNumber": "29",
    "containerTypes": [
      "glass"
    ],
    "rawDate": "05/05/2024",
    "date": "2024-05-04T21:00:00.000Z",
    "location": {
      "longitude": 34.86173049737912,
      "latitude": 32.34425436101373
    },
    "externalId": 3320
  },
  {
    "id": 3326,
    "city": "נתניה",
    "street": "הרב ריינס",
    "houseNumber": "22",
    "containerTypes": [
      "glass"
    ],
    "rawDate": "05/05/2024",
    "date": "2024-05-04T21:00:00.000Z",
    "location": {
      "longitude": 34.86478059086137,
      "latitude": 32.33438432675769
    },
    "externalId": 3326
  },
  {
    "id": 3250,
    "city": "נתניה",
    "street": "אבנר בן נר",
    "houseNumber": "10",
    "containerTypes": [
      "glass"
    ],
    "rawDate": "05/05/2024",
    "date": "2024-05-04T21:00:00.000Z",
    "location": {
      "longitude": 34.86702059877385,
      "latitude": 32.33391433801751
    },
    "externalId": 3250
  },
  {
    "id": 4400,
    "city": "נתניה",
    "street": "לא ידוע",
    "houseNumber": "לא ידוע",
    "containerTypes": [
      "glass"
    ],
    "rawDate": "05/05/2024",
    "date": "2024-05-04T21:00:00.000Z",
    "location": {
      "longitude": 34.870250568803264,
      "latitude": 32.33769438043304
    },
    "externalId": 4400
  },
  {
    "id": 3214,
    "city": "נתניה",
    "street": "פייר קניג",
    "houseNumber": "16",
    "containerTypes": [
      "glass"
    ],
    "rawDate": "05/05/2024",
    "date": "2024-05-04T21:00:00.000Z",
    "location": {
      "longitude": 34.84537079428095,
      "latitude": 32.30878406006727
    },
    "externalId": 3214
  },
  {
    "id": 4405,
    "city": "נתניה",
    "street": "חטיבת קרייתי",
    "houseNumber": "4",
    "containerTypes": [
      "glass"
    ],
    "rawDate": "05/05/2024",
    "date": "2024-05-04T21:00:00.000Z",
    "location": {
      "longitude": 34.84619086132343,
      "latitude": 32.30142402524363
    },
    "externalId": 4405
  },
  {
    "id": 6197,
    "city": "ישראל",
    "street": "לא ידוע",
    "houseNumber": "לא ידוע",
    "containerTypes": [
      "glass"
    ],
    "rawDate": "05/05/2024",
    "date": "2024-05-04T21:00:00.000Z",
    "location": {
      "longitude": 34.85237088042784,
      "latitude": 32.30034405954181
    },
    "externalId": 6197
  },
  {
    "id": 4399,
    "city": "נתניה",
    "street": "לנטוס",
    "houseNumber": "25",
    "containerTypes": [
      "glass"
    ],
    "rawDate": "05/05/2024",
    "date": "2024-05-04T21:00:00.000Z",
    "location": {
      "longitude": 34.86928084903757,
      "latitude": 32.30643420235323
    },
    "externalId": 4399
  },
  {
    "id": 3261,
    "city": "נתניה",
    "street": "אוסישקין",
    "houseNumber": "18",
    "containerTypes": [
      "glass"
    ],
    "rawDate": "05/05/2024",
    "date": "2024-05-04T21:00:00.000Z",
    "location": {
      "longitude": 34.85079063307496,
      "latitude": 32.3275341978397
    },
    "externalId": 3261
  },
  {
    "id": 6446,
    "city": "נתניה",
    "street": "דוד המלך",
    "houseNumber": "12",
    "containerTypes": [
      "glass"
    ],
    "rawDate": "05/05/2024",
    "date": "2024-05-04T21:00:00.000Z",
    "location": {
      "longitude": 34.85079059399324,
      "latitude": 32.33186422204832
    },
    "externalId": 6446
  },
  {
    "id": 5692,
    "city": "נתניה",
    "street": "אליעזר בן יהודה",
    "houseNumber": "32",
    "containerTypes": [
      "glass"
    ],
    "rawDate": "05/05/2024",
    "date": "2024-05-04T21:00:00.000Z",
    "location": {
      "longitude": 34.85085069183372,
      "latitude": 32.321014162284506
    },
    "externalId": 5692
  },
  {
    "id": 3321,
    "city": "נתניה",
    "street": "בארי",
    "houseNumber": "86",
    "containerTypes": [
      "glass"
    ],
    "rawDate": "05/05/2024",
    "date": "2024-05-04T21:00:00.000Z",
    "location": {
      "longitude": 34.85972052088243,
      "latitude": 32.34137433159268
    },
    "externalId": 3321
  },
  {
    "id": 3315,
    "city": "נתניה",
    "street": "מאיר בר אילן",
    "houseNumber": "19",
    "containerTypes": [
      "glass"
    ],
    "rawDate": "05/05/2024",
    "date": "2024-05-04T21:00:00.000Z",
    "location": {
      "longitude": 34.86187057428291,
      "latitude": 32.33576431540261
    },
    "externalId": 3315
  },
  {
    "id": 5995,
    "city": "נתניה",
    "street": "החשמונאים",
    "houseNumber": "50",
    "containerTypes": [
      "glass"
    ],
    "rawDate": "05/05/2024",
    "date": "2024-05-04T21:00:00.000Z",
    "location": {
      "longitude": 34.862470599517444,
      "latitude": 32.33310430471412
    },
    "externalId": 5995
  },
  {
    "id": 4414,
    "city": "נתניה",
    "street": "הרעות",
    "houseNumber": "6",
    "containerTypes": [
      "glass"
    ],
    "rawDate": "05/05/2024",
    "date": "2024-05-04T21:00:00.000Z",
    "location": {
      "longitude": 34.84814071075554,
      "latitude": 32.31843413108121
    },
    "externalId": 4414
  },
  {
    "id": 5704,
    "city": "נתניה",
    "street": "הגולן",
    "houseNumber": "8",
    "containerTypes": [
      "glass"
    ],
    "rawDate": "05/05/2024",
    "date": "2024-05-04T21:00:00.000Z",
    "location": {
      "longitude": 34.86998083766543,
      "latitude": 32.30778421462868
    },
    "externalId": 5704
  },
  {
    "id": 5689,
    "city": "נתניה",
    "street": "אוסישקין",
    "houseNumber": "6",
    "containerTypes": [
      "glass"
    ],
    "rawDate": "05/05/2024",
    "date": "2024-05-04T21:00:00.000Z",
    "location": {
      "longitude": 34.85044064410498,
      "latitude": 32.32627418923065
    },
    "externalId": 5689
  },
  {
    "id": 3266,
    "city": "נתניה",
    "street": "סמילנסקי",
    "houseNumber": "40",
    "containerTypes": [
      "glass"
    ],
    "rawDate": "05/05/2024",
    "date": "2024-05-04T21:00:00.000Z",
    "location": {
      "longitude": 34.851520661728934,
      "latitude": 32.32441418562615
    },
    "externalId": 3266
  },
  {
    "id": 3313,
    "city": "נתניה",
    "street": "שלמה המלך",
    "houseNumber": "4",
    "containerTypes": [
      "glass"
    ],
    "rawDate": "05/05/2024",
    "date": "2024-05-04T21:00:00.000Z",
    "location": {
      "longitude": 34.852010570768144,
      "latitude": 32.33467424468827
    },
    "externalId": 3313
  },
  {
    "id": 3308,
    "city": "נתניה",
    "street": "ד\"ר יהושע טהון",
    "houseNumber": "13",
    "containerTypes": [
      "glass"
    ],
    "rawDate": "05/05/2024",
    "date": "2024-05-04T21:00:00.000Z",
    "location": {
      "longitude": 34.855870527827,
      "latitude": 32.34004429920835
    },
    "externalId": 3308
  },
  {
    "id": 3272,
    "city": "נתניה",
    "street": "דברי חיים",
    "houseNumber": "12",
    "containerTypes": [
      "glass"
    ],
    "rawDate": "05/05/2024",
    "date": "2024-05-04T21:00:00.000Z",
    "location": {
      "longitude": 34.85621049681037,
      "latitude": 32.34346432059022
    },
    "externalId": 3272
  },
  {
    "id": 5682,
    "city": "נתניה",
    "street": "הרב הרצוג",
    "houseNumber": "23",
    "containerTypes": [
      "glass"
    ],
    "rawDate": "05/05/2024",
    "date": "2024-05-04T21:00:00.000Z",
    "location": {
      "longitude": 34.85896051432298,
      "latitude": 32.34201433047573
    },
    "externalId": 5682
  },
  {
    "id": 5694,
    "city": "נתניה",
    "street": "גבע",
    "houseNumber": "25",
    "containerTypes": [
      "glass"
    ],
    "rawDate": "05/05/2024",
    "date": "2024-05-04T21:00:00.000Z",
    "location": {
      "longitude": 34.85923067735629,
      "latitude": 32.32389423307198
    },
    "externalId": 5694
  },
  {
    "id": 4401,
    "city": "נתניה",
    "street": "רבי עקיבא",
    "houseNumber": "48",
    "containerTypes": [
      "glass"
    ],
    "rawDate": "05/05/2024",
    "date": "2024-05-04T21:00:00.000Z",
    "location": {
      "longitude": 34.863950517441815,
      "latitude": 32.342444365431334
    },
    "externalId": 4401
  },
  {
    "id": 3317,
    "city": "נתניה",
    "street": "שמעון ברכה",
    "houseNumber": "14",
    "containerTypes": [
      "glass"
    ],
    "rawDate": "05/05/2024",
    "date": "2024-05-04T21:00:00.000Z",
    "location": {
      "longitude": 34.86914060505707,
      "latitude": 32.33344434937041
    },
    "externalId": 3317
  },
  {
    "id": 3454,
    "city": "קרית ים",
    "street": "לילך",
    "houseNumber": "1",
    "containerTypes": [
      "glass"
    ],
    "rawDate": "05/05/2024",
    "date": "2024-05-04T21:00:00.000Z",
    "location": {
      "longitude": 35.073026250719174,
      "latitude": 32.8448084788717
    },
    "externalId": 3454
  },
  {
    "id": 3448,
    "city": "קרית ים",
    "street": "לא ידוע",
    "houseNumber": "לא ידוע",
    "containerTypes": [
      "glass"
    ],
    "rawDate": "05/05/2024",
    "date": "2024-05-04T21:00:00.000Z",
    "location": {
      "longitude": 35.07560619791846,
      "latitude": 32.85104852907305
    },
    "externalId": 3448
  },
  {
    "id": 4478,
    "city": "קרית מוצקין",
    "street": "החשמונאים",
    "houseNumber": "39",
    "containerTypes": [
      "glass"
    ],
    "rawDate": "05/05/2024",
    "date": "2024-05-04T21:00:00.000Z",
    "location": {
      "longitude": 35.0768462878774,
      "latitude": 32.84127848410211
    },
    "externalId": 4478
  },
  {
    "id": 4931,
    "city": "קריית מוצקין",
    "street": "יגאל אלון",
    "houseNumber": "9",
    "containerTypes": [
      "glass"
    ],
    "rawDate": "05/05/2024",
    "date": "2024-05-04T21:00:00.000Z",
    "location": {
      "longitude": 35.081036283824226,
      "latitude": 32.84237851751652
    },
    "externalId": 4931
  },
  {
    "id": 4930,
    "city": "קריית מוצקין",
    "street": "יגאל אלון",
    "houseNumber": "5",
    "containerTypes": [
      "glass"
    ],
    "rawDate": "05/05/2024",
    "date": "2024-05-04T21:00:00.000Z",
    "location": {
      "longitude": 35.08222628617014,
      "latitude": 32.84232852483062
    },
    "externalId": 4930
  },
  {
    "id": 4498,
    "city": "קרית מוצקין",
    "street": "דוד אלעזר",
    "houseNumber": "11",
    "containerTypes": [
      "glass"
    ],
    "rawDate": "05/05/2024",
    "date": "2024-05-04T21:00:00.000Z",
    "location": {
      "longitude": 35.08267632189709,
      "latitude": 32.838458506179
    },
    "externalId": 4498
  },
  {
    "id": 5736,
    "city": "קריית ביאליק",
    "street": "זבולון",
    "houseNumber": "12",
    "containerTypes": [
      "glass"
    ],
    "rawDate": "05/05/2024",
    "date": "2024-05-04T21:00:00.000Z",
    "location": {
      "longitude": 35.0885163198447,
      "latitude": 32.83957855095597
    },
    "externalId": 5736
  },
  {
    "id": 4495,
    "city": "קרית מוצקין",
    "street": "מנחם בגין",
    "houseNumber": "8",
    "containerTypes": [
      "glass"
    ],
    "rawDate": "05/05/2024",
    "date": "2024-05-04T21:00:00.000Z",
    "location": {
      "longitude": 35.09092621739611,
      "latitude": 32.851138629830025
    },
    "externalId": 4495
  },
  {
    "id": 5735,
    "city": "קריית ביאליק",
    "street": "הערמונים",
    "houseNumber": "29",
    "containerTypes": [
      "glass"
    ],
    "rawDate": "05/05/2024",
    "date": "2024-05-04T21:00:00.000Z",
    "location": {
      "longitude": 35.0931863384573,
      "latitude": 32.8382185731798
    },
    "externalId": 5735
  },
  {
    "id": 5970,
    "city": "קריית ביאליק",
    "street": "התות",
    "houseNumber": "14",
    "containerTypes": [
      "glass"
    ],
    "rawDate": "05/05/2024",
    "date": "2024-05-04T21:00:00.000Z",
    "location": {
      "longitude": 35.095296289023466,
      "latitude": 32.843978619187794
    },
    "externalId": 5970
  },
  {
    "id": 3450,
    "city": "קרית ים",
    "street": "שדרות ארזים",
    "houseNumber": "12",
    "containerTypes": [
      "glass"
    ],
    "rawDate": "05/05/2024",
    "date": "2024-05-04T21:00:00.000Z",
    "location": {
      "longitude": 35.08077613884808,
      "latitude": 32.858218602039514
    },
    "externalId": 3450
  },
  {
    "id": 2183,
    "city": "קריית ביאליק",
    "street": "לוחמי הגטאות",
    "houseNumber": "12",
    "containerTypes": [
      "glass"
    ],
    "rawDate": "05/05/2024",
    "date": "2024-05-04T21:00:00.000Z",
    "location": {
      "longitude": 35.095876178423296,
      "latitude": 32.856188689548496
    },
    "externalId": 2183
  },
  {
    "id": 4936,
    "city": "קריית מוצקין",
    "street": "אשכול",
    "houseNumber": "7",
    "containerTypes": [
      "glass"
    ],
    "rawDate": "05/05/2024",
    "date": "2024-05-04T21:00:00.000Z",
    "location": {
      "longitude": 35.079746313623076,
      "latitude": 32.838968490114674
    },
    "externalId": 4936
  },
  {
    "id": 4487,
    "city": "קריית מוצקין",
    "street": "דרך עכו",
    "houseNumber": "197",
    "containerTypes": [
      "glass"
    ],
    "rawDate": "05/05/2024",
    "date": "2024-05-04T21:00:00.000Z",
    "location": {
      "longitude": 35.089406274751234,
      "latitude": 32.844648584462234
    },
    "externalId": 4487
  },
  {
    "id": 4494,
    "city": "קרית מוצקין",
    "street": "מנחם בגין",
    "houseNumber": "30",
    "containerTypes": [
      "glass"
    ],
    "rawDate": "05/05/2024",
    "date": "2024-05-04T21:00:00.000Z",
    "location": {
      "longitude": 35.09033618795224,
      "latitude": 32.85423864297429
    },
    "externalId": 4494
  },
  {
    "id": 4493,
    "city": "קרית מוצקין",
    "street": "מנחם בגין",
    "houseNumber": "22",
    "containerTypes": [
      "glass"
    ],
    "rawDate": "05/05/2024",
    "date": "2024-05-04T21:00:00.000Z",
    "location": {
      "longitude": 35.09062620351324,
      "latitude": 32.8526886364563
    },
    "externalId": 4493
  },
  {
    "id": 5971,
    "city": "קריית ביאליק",
    "street": "הפטל",
    "houseNumber": "13",
    "containerTypes": [
      "glass"
    ],
    "rawDate": "05/05/2024",
    "date": "2024-05-04T21:00:00.000Z",
    "location": {
      "longitude": 35.09402631680507,
      "latitude": 32.8407085929476
    },
    "externalId": 5971
  },
  {
    "id": 3443,
    "city": "קרית ים",
    "street": "הראשונים",
    "houseNumber": "8",
    "containerTypes": [
      "glass"
    ],
    "rawDate": "05/05/2024",
    "date": "2024-05-04T21:00:00.000Z",
    "location": {
      "longitude": 35.06585618149569,
      "latitude": 32.85127846696298
    },
    "externalId": 3443
  },
  {
    "id": 3446,
    "city": "קרית ים",
    "street": "אצ\"ל",
    "houseNumber": "2",
    "containerTypes": [
      "glass"
    ],
    "rawDate": "05/05/2024",
    "date": "2024-05-04T21:00:00.000Z",
    "location": {
      "longitude": 35.073316182122134,
      "latitude": 32.85239852199597
    },
    "externalId": 3446
  },
  {
    "id": 3445,
    "city": "קרית ים",
    "street": "שדרות הנרייטה סולד",
    "houseNumber": "50",
    "containerTypes": [
      "glass"
    ],
    "rawDate": "05/05/2024",
    "date": "2024-05-04T21:00:00.000Z",
    "location": {
      "longitude": 35.07402621272519,
      "latitude": 32.84915850922732
    },
    "externalId": 3445
  },
  {
    "id": 3453,
    "city": "קרית ים",
    "street": "סביון",
    "houseNumber": "5",
    "containerTypes": [
      "glass"
    ],
    "rawDate": "05/05/2024",
    "date": "2024-05-04T21:00:00.000Z",
    "location": {
      "longitude": 35.07788624403968,
      "latitude": 32.84623851832738
    },
    "externalId": 3453
  },
  {
    "id": 4430,
    "city": "קרית מוצקין",
    "street": "החשמונאים",
    "houseNumber": "41",
    "containerTypes": [
      "glass"
    ],
    "rawDate": "05/05/2024",
    "date": "2024-05-04T21:00:00.000Z",
    "location": {
      "longitude": 35.0781462838249,
      "latitude": 32.84191849606246
    },
    "externalId": 4430
  },
  {
    "id": 4477,
    "city": "קרית מוצקין",
    "street": "החשמונאים",
    "houseNumber": "53",
    "containerTypes": [
      "glass"
    ],
    "rawDate": "05/05/2024",
    "date": "2024-05-04T21:00:00.000Z",
    "location": {
      "longitude": 35.07825627082886,
      "latitude": 32.84344850472917
    },
    "externalId": 4477
  },
  {
    "id": 4934,
    "city": "קריית מוצקין",
    "street": "בן גוריון",
    "houseNumber": "73",
    "containerTypes": [
      "glass"
    ],
    "rawDate": "05/05/2024",
    "date": "2024-05-04T21:00:00.000Z",
    "location": {
      "longitude": 35.08259632838403,
      "latitude": 32.83771850218543
    },
    "externalId": 4934
  },
  {
    "id": 4419,
    "city": "קרית מוצקין",
    "street": "ציגל",
    "houseNumber": "18",
    "containerTypes": [
      "glass"
    ],
    "rawDate": "05/05/2024",
    "date": "2024-05-04T21:00:00.000Z",
    "location": {
      "longitude": 35.083846300065204,
      "latitude": 32.840998527581625
    },
    "externalId": 4419
  },
  {
    "id": 4417,
    "city": "קרית מוצקין",
    "street": "קדיש לוז",
    "houseNumber": "54",
    "containerTypes": [
      "glass"
    ],
    "rawDate": "05/05/2024",
    "date": "2024-05-04T21:00:00.000Z",
    "location": {
      "longitude": 35.08864627270173,
      "latitude": 32.84475857939417
    },
    "externalId": 4417
  },
  {
    "id": 4486,
    "city": "קרית מוצקין",
    "street": "קדיש לוז",
    "houseNumber": "76",
    "containerTypes": [
      "glass"
    ],
    "rawDate": "05/05/2024",
    "date": "2024-05-04T21:00:00.000Z",
    "location": {
      "longitude": 35.09088624394041,
      "latitude": 32.84819861337667
    },
    "externalId": 4486
  },
  {
    "id": 2187,
    "city": "קריית ביאליק",
    "street": "המכבים",
    "houseNumber": "1",
    "containerTypes": [
      "glass"
    ],
    "rawDate": "05/05/2024",
    "date": "2024-05-04T21:00:00.000Z",
    "location": {
      "longitude": 35.09232627582985,
      "latitude": 32.844948604572615
    },
    "externalId": 2187
  },
  {
    "id": 2257,
    "city": "קרית ביאליק",
    "street": "לא ידוע",
    "houseNumber": "לא ידוע",
    "containerTypes": [
      "glass"
    ],
    "rawDate": "05/05/2024",
    "date": "2024-05-04T21:00:00.000Z",
    "location": {
      "longitude": 35.09398630554685,
      "latitude": 32.84198859948059
    },
    "externalId": 2257
  },
  {
    "id": 2185,
    "city": "קריית ביאליק",
    "street": "חרובים",
    "houseNumber": "22",
    "containerTypes": [
      "glass"
    ],
    "rawDate": "05/05/2024",
    "date": "2024-05-04T21:00:00.000Z",
    "location": {
      "longitude": 35.09722623200872,
      "latitude": 32.85048866734623
    },
    "externalId": 2185
  },
  {
    "id": 4744,
    "city": "קריית ביאליק",
    "street": "חרובים",
    "houseNumber": "137",
    "containerTypes": [
      "glass"
    ],
    "rawDate": "05/05/2024",
    "date": "2024-05-04T21:00:00.000Z",
    "location": {
      "longitude": 35.09789621434657,
      "latitude": 32.85255868304617
    },
    "externalId": 4744
  },
  {
    "id": 3451,
    "city": "קרית ים",
    "street": "שדרות ארזים",
    "houseNumber": "12",
    "containerTypes": [
      "glass"
    ],
    "rawDate": "05/05/2024",
    "date": "2024-05-04T21:00:00.000Z",
    "location": {
      "longitude": 35.080776138842594,
      "latitude": 32.858208602290865
    },
    "externalId": 3451
  },
  {
    "id": 1892,
    "city": "מטה אשר",
    "street": "לא ידוע",
    "houseNumber": "לא ידוע",
    "containerTypes": [
      "glass"
    ],
    "rawDate": "05/05/2024",
    "date": "2024-05-04T21:00:00.000Z",
    "location": {
      "longitude": 35.09889588853735,
      "latitude": 32.88834888523869
    },
    "externalId": 1892
  },
  {
    "id": 4427,
    "city": "קרית מוצקין",
    "street": "החשמונאים",
    "houseNumber": "37",
    "containerTypes": [
      "glass"
    ],
    "rawDate": "05/05/2024",
    "date": "2024-05-04T21:00:00.000Z",
    "location": {
      "longitude": 35.076886299138806,
      "latitude": 32.84014847808571
    },
    "externalId": 4427
  },
  {
    "id": 4933,
    "city": "קריית מוצקין",
    "street": "אשכול",
    "houseNumber": "3",
    "containerTypes": [
      "glass"
    ],
    "rawDate": "05/05/2024",
    "date": "2024-05-04T21:00:00.000Z",
    "location": {
      "longitude": 35.07838630585882,
      "latitude": 32.83961848489969
    },
    "externalId": 4933
  },
  {
    "id": 4768,
    "city": "קרית מוצקין",
    "street": "נעמי שמר",
    "houseNumber": "10",
    "containerTypes": [
      "glass"
    ],
    "rawDate": "05/05/2024",
    "date": "2024-05-04T21:00:00.000Z",
    "location": {
      "longitude": 35.08358625962931,
      "latitude": 32.84545855047171
    },
    "externalId": 4768
  },
  {
    "id": 4482,
    "city": "קרית מוצקין",
    "street": "עופרה חזה",
    "houseNumber": "4",
    "containerTypes": [
      "glass"
    ],
    "rawDate": "05/05/2024",
    "date": "2024-05-04T21:00:00.000Z",
    "location": {
      "longitude": 35.088836226203235,
      "latitude": 32.84990860912218
    },
    "externalId": 4482
  },
  {
    "id": 2198,
    "city": "קריית ביאליק",
    "street": "אהוד מנור",
    "houseNumber": "15",
    "containerTypes": [
      "glass"
    ],
    "rawDate": "05/05/2024",
    "date": "2024-05-04T21:00:00.000Z",
    "location": {
      "longitude": 35.10258621222693,
      "latitude": 32.85345871867049
    },
    "externalId": 2198
  },
  {
    "id": 5966,
    "city": "2751403",
    "street": "עוזי חיטמן",
    "houseNumber": "1",
    "containerTypes": [
      "glass"
    ],
    "rawDate": "05/05/2024",
    "date": "2024-05-04T21:00:00.000Z",
    "location": {
      "longitude": 35.104766281770225,
      "latitude": 32.84624869255436
    },
    "externalId": 5966
  },
  {
    "id": 3444,
    "city": "קרית ים",
    "street": "שדרות וייצמן",
    "houseNumber": "8",
    "containerTypes": [
      "glass"
    ],
    "rawDate": "05/05/2024",
    "date": "2024-05-04T21:00:00.000Z",
    "location": {
      "longitude": 35.06966619286815,
      "latitude": 32.850598488684994
    },
    "externalId": 3444
  },
  {
    "id": 4485,
    "city": "קרית מוצקין",
    "street": "עופרה חזה",
    "houseNumber": "25",
    "containerTypes": [
      "glass"
    ],
    "rawDate": "05/05/2024",
    "date": "2024-05-04T21:00:00.000Z",
    "location": {
      "longitude": 35.085356233453915,
      "latitude": 32.84859857925143
    },
    "externalId": 4485
  },
  {
    "id": 4637,
    "city": "קרית מוצקין",
    "street": "דקר",
    "houseNumber": "42",
    "containerTypes": [
      "glass"
    ],
    "rawDate": "05/05/2024",
    "date": "2024-05-04T21:00:00.000Z",
    "location": {
      "longitude": 35.085906270438045,
      "latitude": 32.84454856095172
    },
    "externalId": 4637
  },
  {
    "id": 4484,
    "city": "קרית מוצקין",
    "street": "עופרה חזה",
    "houseNumber": "14",
    "containerTypes": [
      "glass"
    ],
    "rawDate": "05/05/2024",
    "date": "2024-05-04T21:00:00.000Z",
    "location": {
      "longitude": 35.08593623689898,
      "latitude": 32.84826858161357
    },
    "externalId": 4484
  },
  {
    "id": 2188,
    "city": "קריית ביאליק",
    "street": "המייסדים",
    "houseNumber": "24",
    "containerTypes": [
      "glass"
    ],
    "rawDate": "05/05/2024",
    "date": "2024-05-04T21:00:00.000Z",
    "location": {
      "longitude": 35.09219629976131,
      "latitude": 32.8422785889797
    },
    "externalId": 2188
  },
  {
    "id": 5733,
    "city": "קריית ביאליק",
    "street": "דרור",
    "houseNumber": "2",
    "containerTypes": [
      "glass"
    ],
    "rawDate": "05/05/2024",
    "date": "2024-05-04T21:00:00.000Z",
    "location": {
      "longitude": 35.0947962688963,
      "latitude": 32.846158627974866
    },
    "externalId": 5733
  },
  {
    "id": 5967,
    "city": "קריית ביאליק",
    "street": "אהוד מנור",
    "houseNumber": "4",
    "containerTypes": [
      "glass"
    ],
    "rawDate": "05/05/2024",
    "date": "2024-05-04T21:00:00.000Z",
    "location": {
      "longitude": 35.10570626963082,
      "latitude": 32.847618706184996
    },
    "externalId": 5967
  },
  {
    "id": 4489,
    "city": "2623025",
    "street": "זלמן שז\"ר",
    "houseNumber": "8",
    "containerTypes": [
      "glass"
    ],
    "rawDate": "05/05/2024",
    "date": "2024-05-04T21:00:00.000Z",
    "location": {
      "longitude": 35.08850617734065,
      "latitude": 32.855238636705295
    },
    "externalId": 4489
  },
  {
    "id": 4479,
    "city": "קרית מוצקין",
    "street": "החשמונאים",
    "houseNumber": "63",
    "containerTypes": [
      "glass"
    ],
    "rawDate": "05/05/2024",
    "date": "2024-05-04T21:00:00.000Z",
    "location": {
      "longitude": 35.07898627988711,
      "latitude": 32.84257850505904
    },
    "externalId": 4479
  },
  {
    "id": 3449,
    "city": "קרית ים",
    "street": "גולן",
    "houseNumber": "1",
    "containerTypes": [
      "glass"
    ],
    "rawDate": "05/05/2024",
    "date": "2024-05-04T21:00:00.000Z",
    "location": {
      "longitude": 35.0812061879043,
      "latitude": 32.852968576547305
    },
    "externalId": 3449
  },
  {
    "id": 4481,
    "city": "קרית מוצקין",
    "street": "יוסי בנאי",
    "houseNumber": "3",
    "containerTypes": [
      "glass"
    ],
    "rawDate": "05/05/2024",
    "date": "2024-05-04T21:00:00.000Z",
    "location": {
      "longitude": 35.0834562400871,
      "latitude": 32.847568561512915
    },
    "externalId": 4481
  },
  {
    "id": 4639,
    "city": "קרית מוצקין",
    "street": "דקר",
    "houseNumber": "32",
    "containerTypes": [
      "glass"
    ],
    "rawDate": "05/05/2024",
    "date": "2024-05-04T21:00:00.000Z",
    "location": {
      "longitude": 35.08444627615306,
      "latitude": 32.843798547366795
    },
    "externalId": 4639
  },
  {
    "id": 4420,
    "city": "2642003",
    "street": "חזני",
    "houseNumber": "4",
    "containerTypes": [
      "glass"
    ],
    "rawDate": "05/05/2024",
    "date": "2024-05-04T21:00:00.000Z",
    "location": {
      "longitude": 35.08525631477766,
      "latitude": 32.83961852929869
    },
    "externalId": 4420
  },
  {
    "id": 4742,
    "city": "קריית ביאליק",
    "street": "לא ידוע",
    "houseNumber": "לא ידוע",
    "containerTypes": [
      "glass"
    ],
    "rawDate": "05/05/2024",
    "date": "2024-05-04T21:00:00.000Z",
    "location": {
      "longitude": 35.09402630338041,
      "latitude": 32.84218860057161
    },
    "externalId": 4742
  },
  {
    "id": 4491,
    "city": "קרית מוצקין",
    "street": "הברוש",
    "houseNumber": "4",
    "containerTypes": [
      "glass"
    ],
    "rawDate": "05/05/2024",
    "date": "2024-05-04T21:00:00.000Z",
    "location": {
      "longitude": 35.08975617240177,
      "latitude": 32.855958648197415
    },
    "externalId": 4491
  },
  {
    "id": 4492,
    "city": "קרית מוצקין",
    "street": "מנחם בגין",
    "houseNumber": "37",
    "containerTypes": [
      "glass"
    ],
    "rawDate": "05/05/2024",
    "date": "2024-05-04T21:00:00.000Z",
    "location": {
      "longitude": 35.09096616381056,
      "latitude": 32.85704866209721
    },
    "externalId": 4492
  },
  {
    "id": 2184,
    "city": "קריית ביאליק",
    "street": "מרטין בובר",
    "houseNumber": "4",
    "containerTypes": [
      "glass"
    ],
    "rawDate": "05/05/2024",
    "date": "2024-05-04T21:00:00.000Z",
    "location": {
      "longitude": 35.096886163752245,
      "latitude": 32.857968705989
    },
    "externalId": 2184
  },
  {
    "id": 3447,
    "city": "קרית ים",
    "street": "תמר",
    "houseNumber": "2",
    "containerTypes": [
      "glass"
    ],
    "rawDate": "05/05/2024",
    "date": "2024-05-04T21:00:00.000Z",
    "location": {
      "longitude": 35.07025615902116,
      "latitude": 32.85447851353759
    },
    "externalId": 3447
  },
  {
    "id": 4638,
    "city": "קרית מוצקין",
    "street": "עוזי חיטמן",
    "houseNumber": "9",
    "containerTypes": [
      "glass"
    ],
    "rawDate": "05/05/2024",
    "date": "2024-05-04T21:00:00.000Z",
    "location": {
      "longitude": 35.08547626484367,
      "latitude": 32.84513856113054
    },
    "externalId": 4638
  },
  {
    "id": 4767,
    "city": "קרית מוצקין",
    "street": "דקר",
    "houseNumber": "27",
    "containerTypes": [
      "glass"
    ],
    "rawDate": "05/05/2024",
    "date": "2024-05-04T21:00:00.000Z",
    "location": {
      "longitude": 35.08647626863187,
      "latitude": 32.84485856620133
    },
    "externalId": 4767
  },
  {
    "id": 4418,
    "city": "קרית מוצקין",
    "street": "עוזי חיטמן",
    "houseNumber": "12",
    "containerTypes": [
      "glass"
    ],
    "rawDate": "05/05/2024",
    "date": "2024-05-04T21:00:00.000Z",
    "location": {
      "longitude": 35.08667625454795,
      "latitude": 32.84649857622442
    },
    "externalId": 4418
  },
  {
    "id": 4641,
    "city": "קרית מוצקין",
    "street": "עופרה חזה 8-",
    "houseNumber": "10",
    "containerTypes": [
      "glass"
    ],
    "rawDate": "05/05/2024",
    "date": "2024-05-04T21:00:00.000Z",
    "location": {
      "longitude": 35.08786623813064,
      "latitude": 32.84839859456314
    },
    "externalId": 4641
  },
  {
    "id": 4488,
    "city": "קרית מוצקין",
    "street": "יצחק בן צבי",
    "houseNumber": "12",
    "containerTypes": [
      "glass"
    ],
    "rawDate": "05/05/2024",
    "date": "2024-05-04T21:00:00.000Z",
    "location": {
      "longitude": 35.08887620344915,
      "latitude": 32.852338623214095
    },
    "externalId": 4488
  },
  {
    "id": 2186,
    "city": "קריית ביאליק",
    "street": "התל",
    "houseNumber": "10",
    "containerTypes": [
      "glass"
    ],
    "rawDate": "05/05/2024",
    "date": "2024-05-04T21:00:00.000Z",
    "location": {
      "longitude": 35.0954962497058,
      "latitude": 32.84825864377448
    },
    "externalId": 2186
  },
  {
    "id": 5968,
    "city": "קריית ביאליק",
    "street": "חוגלה",
    "houseNumber": "6",
    "containerTypes": [
      "glass"
    ],
    "rawDate": "05/05/2024",
    "date": "2024-05-04T21:00:00.000Z",
    "location": {
      "longitude": 35.09749627164151,
      "latitude": 32.84619864513398
    },
    "externalId": 5968
  },
  {
    "id": 4490,
    "city": "קרית מוצקין",
    "street": "הברוש",
    "houseNumber": "11",
    "containerTypes": [
      "glass"
    ],
    "rawDate": "05/05/2024",
    "date": "2024-05-04T21:00:00.000Z",
    "location": {
      "longitude": 35.08816616031548,
      "latitude": 32.85693864331617
    },
    "externalId": 4490
  },
  {
    "id": 4480,
    "city": "קרית מוצקין",
    "street": "החשמונאים",
    "houseNumber": "76",
    "containerTypes": [
      "glass"
    ],
    "rawDate": "05/05/2024",
    "date": "2024-05-04T21:00:00.000Z",
    "location": {
      "longitude": 35.081096263426666,
      "latitude": 32.84461853017147
    },
    "externalId": 4480
  },
  {
    "id": 4483,
    "city": "קרית מוצקין",
    "street": "פוגלמן",
    "houseNumber": "18",
    "containerTypes": [
      "glass"
    ],
    "rawDate": "05/05/2024",
    "date": "2024-05-04T21:00:00.000Z",
    "location": {
      "longitude": 35.0837462773126,
      "latitude": 32.84352854089428
    },
    "externalId": 4483
  },
  {
    "id": 4743,
    "city": "קריית ביאליק",
    "street": "הערמונים",
    "houseNumber": "29",
    "containerTypes": [
      "glass"
    ],
    "rawDate": "05/05/2024",
    "date": "2024-05-04T21:00:00.000Z",
    "location": {
      "longitude": 35.093446342126825,
      "latitude": 32.83792857334205
    },
    "externalId": 4743
  },
  {
    "id": 5969,
    "city": "קריית ביאליק",
    "street": "חוגלה",
    "houseNumber": "6",
    "containerTypes": [
      "glass"
    ],
    "rawDate": "05/05/2024",
    "date": "2024-05-04T21:00:00.000Z",
    "location": {
      "longitude": 35.09748627143673,
      "latitude": 32.84618864492645
    },
    "externalId": 5969
  },
  {
    "id": 2182,
    "city": "קריית ביאליק",
    "street": "חרושת",
    "houseNumber": "1",
    "containerTypes": [
      "glass"
    ],
    "rawDate": "05/05/2024",
    "date": "2024-05-04T21:00:00.000Z",
    "location": {
      "longitude": 35.099106143390685,
      "latitude": 32.860458733867866
    },
    "externalId": 2182
  },
  {
    "id": 3461,
    "city": "חיפה",
    "street": "קרן היסוד",
    "houseNumber": "19",
    "containerTypes": [
      "glass"
    ],
    "rawDate": "05/05/2024",
    "date": "2024-05-04T21:00:00.000Z",
    "location": {
      "longitude": 34.99947666795318,
      "latitude": 32.78800768832393
    },
    "externalId": 3461
  },
  {
    "id": 3516,
    "city": "ישראל",
    "street": "קדיש לוז",
    "houseNumber": "1",
    "containerTypes": [
      "glass"
    ],
    "rawDate": "05/05/2024",
    "date": "2024-05-04T21:00:00.000Z",
    "location": {
      "longitude": 35.004046703072305,
      "latitude": 32.78488770164407
    },
    "externalId": 3516
  },
  {
    "id": 3514,
    "city": "ישראל",
    "street": "צופית 2-",
    "houseNumber": "12",
    "containerTypes": [
      "glass"
    ],
    "rawDate": "05/05/2024",
    "date": "2024-05-04T21:00:00.000Z",
    "location": {
      "longitude": 35.008856714832255,
      "latitude": 32.78434772920426
    },
    "externalId": 3514
  },
  {
    "id": 4182,
    "city": "חיפה",
    "street": "לאון בלום",
    "houseNumber": "9",
    "containerTypes": [
      "glass"
    ],
    "rawDate": "05/05/2024",
    "date": "2024-05-04T21:00:00.000Z",
    "location": {
      "longitude": 34.99782657397425,
      "latitude": 32.798057733389825
    },
    "externalId": 4182
  },
  {
    "id": 3969,
    "city": "חיפה",
    "street": "האר\"י",
    "houseNumber": "22",
    "containerTypes": [
      "glass"
    ],
    "rawDate": "05/05/2024",
    "date": "2024-05-04T21:00:00.000Z",
    "location": {
      "longitude": 35.0005165880963,
      "latitude": 32.79693774400094
    },
    "externalId": 3969
  },
  {
    "id": 3518,
    "city": "ישראל",
    "street": "אליעזר אלתר",
    "houseNumber": "11",
    "containerTypes": [
      "glass"
    ],
    "rawDate": "05/05/2024",
    "date": "2024-05-04T21:00:00.000Z",
    "location": {
      "longitude": 35.01227679817065,
      "latitude": 32.775677704291994
    },
    "externalId": 3518
  },
  {
    "id": 3502,
    "city": "ישראל",
    "street": "חניתה 62-",
    "houseNumber": "64",
    "containerTypes": [
      "glass"
    ],
    "rawDate": "05/05/2024",
    "date": "2024-05-04T21:00:00.000Z",
    "location": {
      "longitude": 35.01273666325322,
      "latitude": 32.79053778891591
    },
    "externalId": 3502
  },
  {
    "id": 6426,
    "city": "חיפה",
    "street": "התיכון",
    "houseNumber": "18",
    "containerTypes": [
      "glass"
    ],
    "rawDate": "05/05/2024",
    "date": "2024-05-04T21:00:00.000Z",
    "location": {
      "longitude": 35.01325665120081,
      "latitude": 32.79197780026316
    },
    "externalId": 6426
  },
  {
    "id": 5646,
    "city": "חיפה",
    "street": "נתיב חן",
    "houseNumber": "81",
    "containerTypes": [
      "glass"
    ],
    "rawDate": "05/05/2024",
    "date": "2024-05-04T21:00:00.000Z",
    "location": {
      "longitude": 35.01659665459016,
      "latitude": 32.79203782180647
    },
    "externalId": 5646
  },
  {
    "id": 2177,
    "city": "נשר",
    "street": "המצפה",
    "houseNumber": "23",
    "containerTypes": [
      "glass"
    ],
    "rawDate": "05/05/2024",
    "date": "2024-05-04T21:00:00.000Z",
    "location": {
      "longitude": 35.03526682575128,
      "latitude": 32.776117856260285
    },
    "externalId": 2177
  },
  {
    "id": 3689,
    "city": "חיפה",
    "street": "חטיבת כרמלי",
    "houseNumber": "21",
    "containerTypes": [
      "glass"
    ],
    "rawDate": "05/05/2024",
    "date": "2024-05-04T21:00:00.000Z",
    "location": {
      "longitude": 35.01671661394292,
      "latitude": 32.79653784777297
    },
    "externalId": 3689
  },
  {
    "id": 3407,
    "city": "חיפה",
    "street": "ורדיה",
    "houseNumber": "28",
    "containerTypes": [
      "glass"
    ],
    "rawDate": "05/05/2024",
    "date": "2024-05-04T21:00:00.000Z",
    "location": {
      "longitude": 34.99869661155515,
      "latitude": 32.79406771709671
    },
    "externalId": 3407
  },
  {
    "id": 3614,
    "city": "חיפה",
    "street": "חניתה",
    "houseNumber": "19",
    "containerTypes": [
      "glass"
    ],
    "rawDate": "05/05/2024",
    "date": "2024-05-04T21:00:00.000Z",
    "location": {
      "longitude": 35.01082663783769,
      "latitude": 32.79303779011783
    },
    "externalId": 3614
  },
  {
    "id": 5114,
    "city": "נשר",
    "street": "לא ידוע",
    "houseNumber": "לא ידוע",
    "containerTypes": [
      "glass"
    ],
    "rawDate": "05/05/2024",
    "date": "2024-05-04T21:00:00.000Z",
    "location": {
      "longitude": 35.021136768390704,
      "latitude": 32.780227787267734
    },
    "externalId": 5114
  },
  {
    "id": 3458,
    "city": "חיפה",
    "street": "קרן היסוד",
    "houseNumber": "50",
    "containerTypes": [
      "glass"
    ],
    "rawDate": "05/05/2024",
    "date": "2024-05-04T21:00:00.000Z",
    "location": {
      "longitude": 34.99869664816288,
      "latitude": 32.790107695054836
    },
    "externalId": 3458
  },
  {
    "id": 3525,
    "city": "ישראל",
    "street": "לא ידוע",
    "houseNumber": "לא ידוע",
    "containerTypes": [
      "glass"
    ],
    "rawDate": "05/05/2024",
    "date": "2024-05-04T21:00:00.000Z",
    "location": {
      "longitude": 35.01291674222066,
      "latitude": 32.781857742778655
    },
    "externalId": 3525
  },
  {
    "id": 3526,
    "city": "חיפה",
    "street": "פינסקר 71-",
    "houseNumber": "69",
    "containerTypes": [
      "glass"
    ],
    "rawDate": "05/05/2024",
    "date": "2024-05-04T21:00:00.000Z",
    "location": {
      "longitude": 35.01467676066056,
      "latitude": 32.78016774472405
    },
    "externalId": 3526
  },
  {
    "id": 3506,
    "city": "חיפה",
    "street": "הגליל",
    "houseNumber": "105",
    "containerTypes": [
      "glass"
    ],
    "rawDate": "05/05/2024",
    "date": "2024-05-04T21:00:00.000Z",
    "location": {
      "longitude": 35.0197467042632,
      "latitude": 32.787077815499714
    },
    "externalId": 3506
  },
  {
    "id": 3515,
    "city": "ישראל",
    "street": "לא ידוע",
    "houseNumber": "לא ידוע",
    "containerTypes": [
      "glass"
    ],
    "rawDate": "05/05/2024",
    "date": "2024-05-04T21:00:00.000Z",
    "location": {
      "longitude": 35.00432668037518,
      "latitude": 32.787397717251096
    },
    "externalId": 3515
  },
  {
    "id": 3523,
    "city": "ישראל",
    "street": "יוחנן רטנר",
    "houseNumber": "113",
    "containerTypes": [
      "glass"
    ],
    "rawDate": "05/05/2024",
    "date": "2024-05-04T21:00:00.000Z",
    "location": {
      "longitude": 35.00570662876879,
      "latitude": 32.793237757857945
    },
    "externalId": 3523
  },
  {
    "id": 4171,
    "city": "חיפה",
    "street": "בת חן",
    "houseNumber": "40",
    "containerTypes": [
      "glass"
    ],
    "rawDate": "05/05/2024",
    "date": "2024-05-04T21:00:00.000Z",
    "location": {
      "longitude": 35.00801668575689,
      "latitude": 32.78732774094008
    },
    "externalId": 4171
  },
  {
    "id": 3513,
    "city": "ישראל",
    "street": "אינטרנשיונל",
    "houseNumber": "15",
    "containerTypes": [
      "glass"
    ],
    "rawDate": "05/05/2024",
    "date": "2024-05-04T21:00:00.000Z",
    "location": {
      "longitude": 35.00925676106003,
      "latitude": 32.77933770498046
    },
    "externalId": 3513
  },
  {
    "id": 3403,
    "city": "חיפה",
    "street": "ורדיה",
    "houseNumber": "23",
    "containerTypes": [
      "glass"
    ],
    "rawDate": "05/05/2024",
    "date": "2024-05-04T21:00:00.000Z",
    "location": {
      "longitude": 34.99680660032285,
      "latitude": 32.79501770991249
    },
    "externalId": 3403
  },
  {
    "id": 4177,
    "city": "חיפה",
    "street": "לאון בלום",
    "houseNumber": "38",
    "containerTypes": [
      "glass"
    ],
    "rawDate": "05/05/2024",
    "date": "2024-05-04T21:00:00.000Z",
    "location": {
      "longitude": 34.999536580440534,
      "latitude": 32.79759774210451
    },
    "externalId": 4177
  },
  {
    "id": 3687,
    "city": "חיפה",
    "street": "לאון בלום",
    "houseNumber": "25",
    "containerTypes": [
      "glass"
    ],
    "rawDate": "05/05/2024",
    "date": "2024-05-04T21:00:00.000Z",
    "location": {
      "longitude": 34.999886558383665,
      "latitude": 32.80006775767459
    },
    "externalId": 3687
  },
  {
    "id": 3686,
    "city": "חיפה",
    "street": "לאון בלום",
    "houseNumber": "36",
    "containerTypes": [
      "glass"
    ],
    "rawDate": "05/05/2024",
    "date": "2024-05-04T21:00:00.000Z",
    "location": {
      "longitude": 34.999906571446225,
      "latitude": 32.79867774965184
    },
    "externalId": 3686
  },
  {
    "id": 4172,
    "city": "חיפה",
    "street": "יד לבנים",
    "houseNumber": "210",
    "containerTypes": [
      "glass"
    ],
    "rawDate": "05/05/2024",
    "date": "2024-05-04T21:00:00.000Z",
    "location": {
      "longitude": 35.0060466004229,
      "latitude": 32.79647777821065
    },
    "externalId": 4172
  },
  {
    "id": 3501,
    "city": "חיפה",
    "street": "סילבר",
    "houseNumber": "63",
    "containerTypes": [
      "glass"
    ],
    "rawDate": "05/05/2024",
    "date": "2024-05-04T21:00:00.000Z",
    "location": {
      "longitude": 35.01029666323073,
      "latitude": 32.79014777099692
    },
    "externalId": 3501
  },
  {
    "id": 3527,
    "city": "חיפה",
    "street": "בורוכוב 14-",
    "houseNumber": "20",
    "containerTypes": [
      "glass"
    ],
    "rawDate": "05/05/2024",
    "date": "2024-05-04T21:00:00.000Z",
    "location": {
      "longitude": 35.010446748833104,
      "latitude": 32.78078772041191
    },
    "externalId": 3527
  },
  {
    "id": 3505,
    "city": "ישראל",
    "street": "לא ידוע",
    "houseNumber": "לא ידוע",
    "containerTypes": [
      "glass"
    ],
    "rawDate": "05/05/2024",
    "date": "2024-05-04T21:00:00.000Z",
    "location": {
      "longitude": 35.01259672754326,
      "latitude": 32.78347774891966
    },
    "externalId": 3505
  },
  {
    "id": 3503,
    "city": "ישראל",
    "street": "רות הכהן",
    "houseNumber": "16",
    "containerTypes": [
      "glass"
    ],
    "rawDate": "05/05/2024",
    "date": "2024-05-04T21:00:00.000Z",
    "location": {
      "longitude": 35.013876717198315,
      "latitude": 32.78478776457462
    },
    "externalId": 3503
  },
  {
    "id": 5118,
    "city": "נשר",
    "street": "לא ידוע",
    "houseNumber": "לא ידוע",
    "containerTypes": [
      "glass"
    ],
    "rawDate": "05/05/2024",
    "date": "2024-05-04T21:00:00.000Z",
    "location": {
      "longitude": 35.01730678521145,
      "latitude": 32.777877749520194
    },
    "externalId": 5118
  },
  {
    "id": 3507,
    "city": "ישראל",
    "street": "לא ידוע",
    "houseNumber": "לא ידוע",
    "containerTypes": [
      "glass"
    ],
    "rawDate": "05/05/2024",
    "date": "2024-05-04T21:00:00.000Z",
    "location": {
      "longitude": 35.01748671917478,
      "latitude": 32.7851377904325
    },
    "externalId": 3507
  },
  {
    "id": 3688,
    "city": "חיפה",
    "street": "נווה גנים",
    "houseNumber": "17",
    "containerTypes": [
      "glass"
    ],
    "rawDate": "05/05/2024",
    "date": "2024-05-04T21:00:00.000Z",
    "location": {
      "longitude": 35.0225766708547,
      "latitude": 32.79122785614904
    },
    "externalId": 3688
  },
  {
    "id": 2180,
    "city": "נשר",
    "street": "עמוס",
    "houseNumber": "14",
    "containerTypes": [
      "glass"
    ],
    "rawDate": "05/05/2024",
    "date": "2024-05-04T21:00:00.000Z",
    "location": {
      "longitude": 35.03054682291686,
      "latitude": 32.77567782288813
    },
    "externalId": 2180
  },
  {
    "id": 2179,
    "city": "נשר",
    "street": "צה\"ל",
    "houseNumber": "21",
    "containerTypes": [
      "glass"
    ],
    "rawDate": "05/05/2024",
    "date": "2024-05-04T21:00:00.000Z",
    "location": {
      "longitude": 35.03083684223884,
      "latitude": 32.773687814179944
    },
    "externalId": 2179
  },
  {
    "id": 4176,
    "city": "חיפה",
    "street": "האר\"י",
    "houseNumber": "8",
    "containerTypes": [
      "glass"
    ],
    "rawDate": "05/05/2024",
    "date": "2024-05-04T21:00:00.000Z",
    "location": {
      "longitude": 34.99834659612145,
      "latitude": 32.79576772430787
    },
    "externalId": 4176
  },
  {
    "id": 3491,
    "city": "חיפה",
    "street": "אבא הלל סילבר",
    "houseNumber": "18",
    "containerTypes": [
      "glass"
    ],
    "rawDate": "05/05/2024",
    "date": "2024-05-04T21:00:00.000Z",
    "location": {
      "longitude": 35.01060665747247,
      "latitude": 32.79081777639118
    },
    "externalId": 3491
  },
  {
    "id": 3520,
    "city": "ישראל",
    "street": "גדליהו",
    "houseNumber": "2",
    "containerTypes": [
      "glass"
    ],
    "rawDate": "05/05/2024",
    "date": "2024-05-04T21:00:00.000Z",
    "location": {
      "longitude": 35.02350675159261,
      "latitude": 32.782487814921936
    },
    "externalId": 3520
  },
  {
    "id": 3498,
    "city": "חיפה",
    "street": "הרב מיימון",
    "houseNumber": "43",
    "containerTypes": [
      "glass"
    ],
    "rawDate": "05/05/2024",
    "date": "2024-05-04T21:00:00.000Z",
    "location": {
      "longitude": 35.02476675207636,
      "latitude": 32.7826178240284
    },
    "externalId": 3498
  },
  {
    "id": 3522,
    "city": "ישראל",
    "street": "אבא הלל סילבר 113-",
    "houseNumber": "105",
    "containerTypes": [
      "glass"
    ],
    "rawDate": "05/05/2024",
    "date": "2024-05-04T21:00:00.000Z",
    "location": {
      "longitude": 35.005886627566035,
      "latitude": 32.79337775983925
    },
    "externalId": 3522
  },
  {
    "id": 4801,
    "city": "חיפה",
    "street": "סירקין",
    "houseNumber": "26",
    "containerTypes": [
      "glass"
    ],
    "rawDate": "05/05/2024",
    "date": "2024-05-04T21:00:00.000Z",
    "location": {
      "longitude": 35.000106475940726,
      "latitude": 32.80916780835037
    },
    "externalId": 4801
  },
  {
    "id": 3500,
    "city": "חיפה",
    "street": "יעקב קליבנוב 4-",
    "houseNumber": "14",
    "containerTypes": [
      "glass"
    ],
    "rawDate": "05/05/2024",
    "date": "2024-05-04T21:00:00.000Z",
    "location": {
      "longitude": 35.01048664204926,
      "latitude": 32.79255778555739
    },
    "externalId": 3500
  },
  {
    "id": 3521,
    "city": "ישראל",
    "street": "טבנקין",
    "houseNumber": "1",
    "containerTypes": [
      "glass"
    ],
    "rawDate": "05/05/2024",
    "date": "2024-05-04T21:00:00.000Z",
    "location": {
      "longitude": 35.009386613746216,
      "latitude": 32.79542779351072
    },
    "externalId": 3521
  },
  {
    "id": 3499,
    "city": "חיפה",
    "street": "טבנקין 67-",
    "houseNumber": "55",
    "containerTypes": [
      "glass"
    ],
    "rawDate": "05/05/2024",
    "date": "2024-05-04T21:00:00.000Z",
    "location": {
      "longitude": 35.0108266031122,
      "latitude": 32.796807811104614
    },
    "externalId": 3499
  },
  {
    "id": 3690,
    "city": "חיפה",
    "street": "יגור",
    "houseNumber": "14",
    "containerTypes": [
      "glass"
    ],
    "rawDate": "05/05/2024",
    "date": "2024-05-04T21:00:00.000Z",
    "location": {
      "longitude": 35.019336620622795,
      "latitude": 32.79620786281896
    },
    "externalId": 3690
  },
  {
    "id": 3509,
    "city": "ישראל",
    "street": "חביבה רייך",
    "houseNumber": "21",
    "containerTypes": [
      "glass"
    ],
    "rawDate": "05/05/2024",
    "date": "2024-05-04T21:00:00.000Z",
    "location": {
      "longitude": 35.00728675276418,
      "latitude": 32.77984769465439
    },
    "externalId": 3509
  },
  {
    "id": 3970,
    "city": "חיפה",
    "street": "גאולה",
    "houseNumber": "13",
    "containerTypes": [
      "glass"
    ],
    "rawDate": "05/05/2024",
    "date": "2024-05-04T21:00:00.000Z",
    "location": {
      "longitude": 34.998366531609804,
      "latitude": 32.802847762593295
    },
    "externalId": 3970
  },
  {
    "id": 3517,
    "city": "ישראל",
    "street": "דובנוב",
    "houseNumber": "26",
    "containerTypes": [
      "glass"
    ],
    "rawDate": "05/05/2024",
    "date": "2024-05-04T21:00:00.000Z",
    "location": {
      "longitude": 35.00991678114161,
      "latitude": 32.77723769784248
    },
    "externalId": 3517
  },
  {
    "id": 3504,
    "city": "ישראל",
    "street": "ברל כצנלסון",
    "houseNumber": "18",
    "containerTypes": [
      "glass"
    ],
    "rawDate": "05/05/2024",
    "date": "2024-05-04T21:00:00.000Z",
    "location": {
      "longitude": 35.01477670433162,
      "latitude": 32.78633777894914
    },
    "externalId": 3504
  },
  {
    "id": 5115,
    "city": "נשר",
    "street": "לא ידוע",
    "houseNumber": "לא ידוע",
    "containerTypes": [
      "glass"
    ],
    "rawDate": "05/05/2024",
    "date": "2024-05-04T21:00:00.000Z",
    "location": {
      "longitude": 35.019586764333305,
      "latitude": 32.78051777876579
    },
    "externalId": 5115
  },
  {
    "id": 5117,
    "city": "נשר",
    "street": "לא ידוע",
    "houseNumber": "לא ידוע",
    "containerTypes": [
      "glass"
    ],
    "rawDate": "05/05/2024",
    "date": "2024-05-04T21:00:00.000Z",
    "location": {
      "longitude": 35.02706683683812,
      "latitude": 32.77368778991721
    },
    "externalId": 5117
  },
  {
    "id": 3406,
    "city": "חיפה",
    "street": "כליל החורש",
    "houseNumber": "4",
    "containerTypes": [
      "glass"
    ],
    "rawDate": "05/05/2024",
    "date": "2024-05-04T21:00:00.000Z",
    "location": {
      "longitude": 34.99691661549324,
      "latitude": 32.79343770224502
    },
    "externalId": 3406
  },
  {
    "id": 3968,
    "city": "חיפה",
    "street": "לאון בלום",
    "houseNumber": "56",
    "containerTypes": [
      "glass"
    ],
    "rawDate": "05/05/2024",
    "date": "2024-05-04T21:00:00.000Z",
    "location": {
      "longitude": 34.99901654824299,
      "latitude": 32.80108775779893
    },
    "externalId": 3968
  },
  {
    "id": 3524,
    "city": "ישראל",
    "street": "לא ידוע",
    "houseNumber": "לא ידוע",
    "containerTypes": [
      "glass"
    ],
    "rawDate": "05/05/2024",
    "date": "2024-05-04T21:00:00.000Z",
    "location": {
      "longitude": 35.0149567442829,
      "latitude": 32.78195775661803
    },
    "externalId": 3524
  },
  {
    "id": 3508,
    "city": "ישראל",
    "street": "אד\"ם הכהן 13-",
    "houseNumber": "1",
    "containerTypes": [
      "glass"
    ],
    "rawDate": "05/05/2024",
    "date": "2024-05-04T21:00:00.000Z",
    "location": {
      "longitude": 35.01608676077271,
      "latitude": 32.78037775520671
    },
    "externalId": 3508
  },
  {
    "id": 5116,
    "city": "נשר",
    "street": "לא ידוע",
    "houseNumber": "לא ידוע",
    "containerTypes": [
      "glass"
    ],
    "rawDate": "05/05/2024",
    "date": "2024-05-04T21:00:00.000Z",
    "location": {
      "longitude": 35.0195068067251,
      "latitude": 32.77579775165026
    },
    "externalId": 5116
  },
  {
    "id": 2143,
    "city": "נשר",
    "street": "דרך בר יהודה",
    "houseNumber": "58",
    "containerTypes": [
      "glass"
    ],
    "rawDate": "05/05/2024",
    "date": "2024-05-04T21:00:00.000Z",
    "location": {
      "longitude": 35.0407068469386,
      "latitude": 32.77461788374432
    },
    "externalId": 2143
  },
  {
    "id": 3419,
    "city": "טירת כרמל",
    "street": "ירושלים",
    "houseNumber": "3",
    "containerTypes": [
      "glass"
    ],
    "rawDate": "05/05/2024",
    "date": "2024-05-04T21:00:00.000Z",
    "location": {
      "longitude": 34.96997693343476,
      "latitude": 32.75439731291143
    },
    "externalId": 3419
  },
  {
    "id": 5629,
    "city": "מגדים",
    "street": "",
    "houseNumber": "83",
    "containerTypes": [
      "glass"
    ],
    "rawDate": "05/05/2024",
    "date": "2024-05-04T21:00:00.000Z",
    "location": {
      "longitude": 34.95753720629939,
      "latitude": 32.72261705758949
    },
    "externalId": 5629
  },
  {
    "id": 4321,
    "city": "טירת כרמל",
    "street": "הנרקיסים",
    "houseNumber": "12",
    "containerTypes": [
      "glass"
    ],
    "rawDate": "05/05/2024",
    "date": "2024-05-04T21:00:00.000Z",
    "location": {
      "longitude": 34.962566887369476,
      "latitude": 32.75841728655281
    },
    "externalId": 4321
  },
  {
    "id": 3420,
    "city": "טירת כרמל",
    "street": "וייצמן",
    "houseNumber": "24",
    "containerTypes": [
      "glass"
    ],
    "rawDate": "05/05/2024",
    "date": "2024-05-04T21:00:00.000Z",
    "location": {
      "longitude": 34.96976692147172,
      "latitude": 32.755747318490975
    },
    "externalId": 3420
  },
  {
    "id": 4322,
    "city": "טירת כרמל",
    "street": "העגור",
    "houseNumber": "8",
    "containerTypes": [
      "glass"
    ],
    "rawDate": "05/05/2024",
    "date": "2024-05-04T21:00:00.000Z",
    "location": {
      "longitude": 34.96372696111243,
      "latitude": 32.750457250859846
    },
    "externalId": 4322
  },
  {
    "id": 4323,
    "city": "טירת הכרמל",
    "street": "לא ידוע",
    "houseNumber": "לא ידוע",
    "containerTypes": [
      "glass"
    ],
    "rawDate": "05/05/2024",
    "date": "2024-05-04T21:00:00.000Z",
    "location": {
      "longitude": 34.96553695945241,
      "latitude": 32.75093726471451
    },
    "externalId": 4323
  },
  {
    "id": 5648,
    "city": "טירת כרמל",
    "street": "ז'בוטינסקי",
    "houseNumber": "29",
    "containerTypes": [
      "glass"
    ],
    "rawDate": "05/05/2024",
    "date": "2024-05-04T21:00:00.000Z",
    "location": {
      "longitude": 34.96707688079237,
      "latitude": 32.75981732382602
    },
    "externalId": 5648
  },
  {
    "id": 3423,
    "city": "טירת כרמל",
    "street": "החרוב",
    "houseNumber": "13",
    "containerTypes": [
      "glass"
    ],
    "rawDate": "05/05/2024",
    "date": "2024-05-04T21:00:00.000Z",
    "location": {
      "longitude": 34.97605687799506,
      "latitude": 32.761487390711395
    },
    "externalId": 3423
  },
  {
    "id": 3422,
    "city": "טירת כרמל",
    "street": "עזרא לניאדו",
    "houseNumber": "18",
    "containerTypes": [
      "glass"
    ],
    "rawDate": "05/05/2024",
    "date": "2024-05-04T21:00:00.000Z",
    "location": {
      "longitude": 34.97691690548871,
      "latitude": 32.75856738053724
    },
    "externalId": 3422
  },
  {
    "id": 5628,
    "city": "מ.א. חוף הכרמל",
    "street": "לא ידוע",
    "houseNumber": "לא ידוע",
    "containerTypes": [
      "glass"
    ],
    "rawDate": "05/05/2024",
    "date": "2024-05-04T21:00:00.000Z",
    "location": {
      "longitude": 34.968137249870324,
      "latitude": 32.719337108646926
    },
    "externalId": 5628
  },
  {
    "id": 3072,
    "city": "מ.א. חוף הכרמל",
    "street": "לא ידוע",
    "houseNumber": "לא ידוע",
    "containerTypes": [
      "glass"
    ],
    "rawDate": "05/05/2024",
    "date": "2024-05-04T21:00:00.000Z",
    "location": {
      "longitude": 34.95432691474999,
      "latitude": 32.7541272094063
    },
    "externalId": 3072
  },
  {
    "id": 3071,
    "city": "מ.א. חוף הכרמל",
    "street": "לא ידוע",
    "houseNumber": "לא ידוע",
    "containerTypes": [
      "glass"
    ],
    "rawDate": "05/05/2024",
    "date": "2024-05-04T21:00:00.000Z",
    "location": {
      "longitude": 34.95280693296388,
      "latitude": 32.75189718750043
    },
    "externalId": 3071
  },
  {
    "id": 5396,
    "city": "בית אורן",
    "street": "",
    "houseNumber": "6",
    "containerTypes": [
      "glass"
    ],
    "rawDate": "05/05/2024",
    "date": "2024-05-04T21:00:00.000Z",
    "location": {
      "longitude": 35.002997196239306,
      "latitude": 32.73058739661259
    },
    "externalId": 5396
  },
  {
    "id": 1335,
    "city": "מ.א. חוף כרמל",
    "street": "לא ידוע",
    "houseNumber": "לא ידוע",
    "containerTypes": [
      "glass"
    ],
    "rawDate": "05/05/2024",
    "date": "2024-05-04T21:00:00.000Z",
    "location": {
      "longitude": 34.95580694803581,
      "latitude": 32.75074720040001
    },
    "externalId": 1335
  },
  {
    "id": 3073,
    "city": "מגדים",
    "street": "כוכב הים",
    "houseNumber": "2",
    "containerTypes": [
      "glass"
    ],
    "rawDate": "05/05/2024",
    "date": "2024-05-04T21:00:00.000Z",
    "location": {
      "longitude": 34.962607089052995,
      "latitude": 32.73618716527238
    },
    "externalId": 3073
  },
  {
    "id": 3417,
    "city": "טירת כרמל",
    "street": "אלמוג",
    "houseNumber": "7",
    "containerTypes": [
      "glass"
    ],
    "rawDate": "05/05/2024",
    "date": "2024-05-04T21:00:00.000Z",
    "location": {
      "longitude": 34.96468686581879,
      "latitude": 32.76106731443961
    },
    "externalId": 3417
  },
  {
    "id": 4324,
    "city": "טירת כרמל",
    "street": "לוי אשכול",
    "houseNumber": "86",
    "containerTypes": [
      "glass"
    ],
    "rawDate": "05/05/2024",
    "date": "2024-05-04T21:00:00.000Z",
    "location": {
      "longitude": 34.9738069027622,
      "latitude": 32.758367359403586
    },
    "externalId": 4324
  },
  {
    "id": 3421,
    "city": "טירת כרמל",
    "street": "הברוש",
    "houseNumber": "21",
    "containerTypes": [
      "glass"
    ],
    "rawDate": "05/05/2024",
    "date": "2024-05-04T21:00:00.000Z",
    "location": {
      "longitude": 34.975556944221005,
      "latitude": 32.75408734740408
    },
    "externalId": 3421
  },
  {
    "id": 6418,
    "city": "טירת כרמל",
    "street": "הגל",
    "houseNumber": "15",
    "containerTypes": [
      "glass"
    ],
    "rawDate": "05/05/2024",
    "date": "2024-05-04T21:00:00.000Z",
    "location": {
      "longitude": 34.963886919931525,
      "latitude": 32.755057276691915
    },
    "externalId": 6418
  },
  {
    "id": 6419,
    "city": "טירת כרמל",
    "street": "רחוב האנפה",
    "houseNumber": "18",
    "containerTypes": [
      "glass"
    ],
    "rawDate": "05/05/2024",
    "date": "2024-05-04T21:00:00.000Z",
    "location": {
      "longitude": 34.966236950044575,
      "latitude": 32.752027275651834
    },
    "externalId": 6419
  },
  {
    "id": 3766,
    "city": "טירת כרמל",
    "street": "הרב וינרוב",
    "houseNumber": "84",
    "containerTypes": [
      "glass"
    ],
    "rawDate": "05/05/2024",
    "date": "2024-05-04T21:00:00.000Z",
    "location": {
      "longitude": 34.97054687106448,
      "latitude": 32.7613273546599
    },
    "externalId": 3766
  },
  {
    "id": 1337,
    "city": "מ.א. חוף כרמל",
    "street": "לא ידוע",
    "houseNumber": "לא ידוע",
    "containerTypes": [
      "glass"
    ],
    "rawDate": "05/05/2024",
    "date": "2024-05-04T21:00:00.000Z",
    "location": {
      "longitude": 34.960837173826995,
      "latitude": 32.72668710152485
    },
    "externalId": 1337
  },
  {
    "id": 3418,
    "city": "טירת הכרמל",
    "street": "אגמית",
    "houseNumber": "2",
    "containerTypes": [
      "glass"
    ],
    "rawDate": "05/05/2024",
    "date": "2024-05-04T21:00:00.000Z",
    "location": {
      "longitude": 34.96294693374801,
      "latitude": 32.7533372612985
    },
    "externalId": 3418
  },
  {
    "id": 6420,
    "city": "טירת כרמל",
    "street": "גיורא יוספטל",
    "houseNumber": "30",
    "containerTypes": [
      "glass"
    ],
    "rawDate": "05/05/2024",
    "date": "2024-05-04T21:00:00.000Z",
    "location": {
      "longitude": 34.968156935371574,
      "latitude": 32.75391729834601
    },
    "externalId": 6420
  },
  {
    "id": 639,
    "city": "ליד צרכניה",
    "street": "לא ידוע",
    "houseNumber": "לא ידוע",
    "containerTypes": [
      "glass"
    ],
    "rawDate": "05/05/2024",
    "date": "2024-05-04T21:00:00.000Z",
    "location": {
      "longitude": 35.14096769428716,
      "latitude": 32.69677810935558
    },
    "externalId": 639
  },
  {
    "id": 604,
    "city": "רמת ישי",
    "street": "צאלון",
    "houseNumber": "22",
    "containerTypes": [
      "glass"
    ],
    "rawDate": "05/05/2024",
    "date": "2024-05-04T21:00:00.000Z",
    "location": {
      "longitude": 35.16062767063529,
      "latitude": 32.70240826787037
    },
    "externalId": 604
  },
  {
    "id": 606,
    "city": "רמת ישי",
    "street": "חצבים",
    "houseNumber": "68",
    "containerTypes": [
      "glass"
    ],
    "rawDate": "05/05/2024",
    "date": "2024-05-04T21:00:00.000Z",
    "location": {
      "longitude": 35.15635768069865,
      "latitude": 32.70061823083418
    },
    "externalId": 606
  },
  {
    "id": 597,
    "city": "רמת ישי",
    "street": "הדס 17 פינת כלניות",
    "houseNumber": "17",
    "containerTypes": [
      "glass"
    ],
    "rawDate": "05/05/2024",
    "date": "2024-05-04T21:00:00.000Z",
    "location": {
      "longitude": 35.17274769008654,
      "latitude": 32.702128345114566
    },
    "externalId": 597
  },
  {
    "id": 641,
    "city": "בית זייד",
    "street": "לא ידוע",
    "houseNumber": "לא ידוע",
    "containerTypes": [
      "glass"
    ],
    "rawDate": "05/05/2024",
    "date": "2024-05-04T21:00:00.000Z",
    "location": {
      "longitude": 35.13172764174231,
      "latitude": 32.70112807307791
    },
    "externalId": 641
  },
  {
    "id": 4967,
    "city": "לא ידוע",
    "street": "לא ידוע",
    "houseNumber": "לא ידוע",
    "containerTypes": [
      "glass"
    ],
    "rawDate": "05/05/2024",
    "date": "2024-05-04T21:00:00.000Z",
    "location": {
      "longitude": 35.14318753405509,
      "latitude": 32.714768222660574
    },
    "externalId": 4967
  },
  {
    "id": 4315,
    "city": "רמת ישי",
    "street": "המרגניות",
    "houseNumber": "19",
    "containerTypes": [
      "glass"
    ],
    "rawDate": "05/05/2024",
    "date": "2024-05-04T21:00:00.000Z",
    "location": {
      "longitude": 35.15792765755908,
      "latitude": 32.70342825578202
    },
    "externalId": 4315
  },
  {
    "id": 634,
    "city": "מרכז מחזור",
    "street": "לא ידוע",
    "houseNumber": "לא ידוע",
    "containerTypes": [
      "glass"
    ],
    "rawDate": "05/05/2024",
    "date": "2024-05-04T21:00:00.000Z",
    "location": {
      "longitude": 35.15165786121061,
      "latitude": 32.68015808735898
    },
    "externalId": 634
  },
  {
    "id": 633,
    "city": "מרכז מחזור",
    "street": "לא ידוע",
    "houseNumber": "לא ידוע",
    "containerTypes": [
      "glass"
    ],
    "rawDate": "05/05/2024",
    "date": "2024-05-04T21:00:00.000Z",
    "location": {
      "longitude": 35.151747862441894,
      "latitude": 32.67996808748785
    },
    "externalId": 633
  },
  {
    "id": 605,
    "city": "קרית טבעון",
    "street": "סתוונית",
    "houseNumber": "15",
    "containerTypes": [
      "glass"
    ],
    "rawDate": "05/05/2024",
    "date": "2024-05-04T21:00:00.000Z",
    "location": {
      "longitude": 35.16201766023857,
      "latitude": 32.70377828467799
    },
    "externalId": 605
  },
  {
    "id": 601,
    "city": "רמת ישי",
    "street": "הארז",
    "houseNumber": "48",
    "containerTypes": [
      "glass"
    ],
    "rawDate": "05/05/2024",
    "date": "2024-05-04T21:00:00.000Z",
    "location": {
      "longitude": 35.16520767984808,
      "latitude": 32.70212829616127
    },
    "externalId": 601
  },
  {
    "id": 695,
    "city": "נווה יער",
    "street": "לא ידוע",
    "houseNumber": "לא ידוע",
    "containerTypes": [
      "glass"
    ],
    "rawDate": "05/05/2024",
    "date": "2024-05-04T21:00:00.000Z",
    "location": {
      "longitude": 35.17802764784964,
      "latitude": 32.70753840978415
    },
    "externalId": 695
  },
  {
    "id": 3778,
    "city": "רמת ישי",
    "street": "חצבים",
    "houseNumber": "48",
    "containerTypes": [
      "glass"
    ],
    "rawDate": "05/05/2024",
    "date": "2024-05-04T21:00:00.000Z",
    "location": {
      "longitude": 35.15787769271815,
      "latitude": 32.69954823431111
    },
    "externalId": 3778
  },
  {
    "id": 3779,
    "city": "רמת ישי",
    "street": "חצבים",
    "houseNumber": "32",
    "containerTypes": [
      "glass"
    ],
    "rawDate": "05/05/2024",
    "date": "2024-05-04T21:00:00.000Z",
    "location": {
      "longitude": 35.158517673239835,
      "latitude": 32.70177825078825
    },
    "externalId": 3779
  },
  {
    "id": 6148,
    "city": "רמת ישי",
    "street": "היסמין",
    "houseNumber": "12",
    "containerTypes": [
      "glass"
    ],
    "rawDate": "05/05/2024",
    "date": "2024-05-04T21:00:00.000Z",
    "location": {
      "longitude": 35.16985768939839,
      "latitude": 32.70173832434688
    },
    "externalId": 6148
  },
  {
    "id": 4258,
    "city": "בית שערים",
    "street": "העמק",
    "houseNumber": "2196",
    "containerTypes": [
      "glass"
    ],
    "rawDate": "05/05/2024",
    "date": "2024-05-04T21:00:00.000Z",
    "location": {
      "longitude": 35.17878776628372,
      "latitude": 32.694718344559554
    },
    "externalId": 4258
  },
  {
    "id": 638,
    "city": "ליד צרכניה",
    "street": "לא ידוע",
    "houseNumber": "לא ידוע",
    "containerTypes": [
      "glass"
    ],
    "rawDate": "05/05/2024",
    "date": "2024-05-04T21:00:00.000Z",
    "location": {
      "longitude": 35.14101769586586,
      "latitude": 32.69662810831862
    },
    "externalId": 638
  },
  {
    "id": 3777,
    "city": "רמת ישי",
    "street": "Afarset",
    "houseNumber": "5",
    "containerTypes": [
      "glass"
    ],
    "rawDate": "05/05/2024",
    "date": "2024-05-04T21:00:00.000Z",
    "location": {
      "longitude": 35.16030770159775,
      "latitude": 32.699008247165224
    },
    "externalId": 3777
  },
  {
    "id": 4316,
    "city": "רמת ישי",
    "street": "מעלה שיקמה",
    "houseNumber": "2",
    "containerTypes": [
      "glass"
    ],
    "rawDate": "05/05/2024",
    "date": "2024-05-04T21:00:00.000Z",
    "location": {
      "longitude": 35.16183769020257,
      "latitude": 32.70046826553666
    },
    "externalId": 4316
  },
  {
    "id": 5475,
    "city": "רמת ישי",
    "street": "סמטת הרימון",
    "houseNumber": "75",
    "containerTypes": [
      "glass"
    ],
    "rawDate": "05/05/2024",
    "date": "2024-05-04T21:00:00.000Z",
    "location": {
      "longitude": 35.163647717450935,
      "latitude": 32.697738261942376
    },
    "externalId": 5475
  },
  {
    "id": 6146,
    "city": "רמת ישי",
    "street": "האלון",
    "houseNumber": "48",
    "containerTypes": [
      "glass"
    ],
    "rawDate": "05/05/2024",
    "date": "2024-05-04T21:00:00.000Z",
    "location": {
      "longitude": 35.16719770342368,
      "latitude": 32.699838296989796
    },
    "externalId": 6146
  },
  {
    "id": 6147,
    "city": "רמת ישי",
    "street": "הפרדס",
    "houseNumber": "16",
    "containerTypes": [
      "glass"
    ],
    "rawDate": "05/05/2024",
    "date": "2024-05-04T21:00:00.000Z",
    "location": {
      "longitude": 35.15802769595216,
      "latitude": 32.69918823369894
    },
    "externalId": 6147
  },
  {
    "id": 700,
    "city": "בית שערים",
    "street": "שביל החלב",
    "houseNumber": "2017",
    "containerTypes": [
      "glass"
    ],
    "rawDate": "05/05/2024",
    "date": "2024-05-04T21:00:00.000Z",
    "location": {
      "longitude": 35.17845776317205,
      "latitude": 32.69499834369884
    },
    "externalId": 700
  },
  {
    "id": 635,
    "city": "מרכז מחזור",
    "street": "לא ידוע",
    "houseNumber": "לא ידוע",
    "containerTypes": [
      "glass"
    ],
    "rawDate": "05/05/2024",
    "date": "2024-05-04T21:00:00.000Z",
    "location": {
      "longitude": 35.15167786069416,
      "latitude": 32.6801880877907
    },
    "externalId": 635
  },
  {
    "id": 600,
    "city": "רמת ישי",
    "street": "דפנה",
    "houseNumber": "16",
    "containerTypes": [
      "glass"
    ],
    "rawDate": "05/05/2024",
    "date": "2024-05-04T21:00:00.000Z",
    "location": {
      "longitude": 35.169307704678175,
      "latitude": 32.699938311094186
    },
    "externalId": 600
  },
  {
    "id": 3780,
    "city": "רמת ישי",
    "street": "האורן",
    "houseNumber": "2",
    "containerTypes": [
      "glass"
    ],
    "rawDate": "05/05/2024",
    "date": "2024-05-04T21:00:00.000Z",
    "location": {
      "longitude": 35.169287647619704,
      "latitude": 32.70619834500668
    },
    "externalId": 3780
  },
  {
    "id": 4976,
    "city": "עתלית",
    "street": "הנרקיסים",
    "houseNumber": "37",
    "containerTypes": [
      "glass"
    ],
    "rawDate": "05/05/2024",
    "date": "2024-05-04T21:00:00.000Z",
    "location": {
      "longitude": 34.934687529289846,
      "latitude": 32.68363669572474
    },
    "externalId": 4976
  },
  {
    "id": 1311,
    "city": "מ.א. חוף כרמל",
    "street": "לא ידוע",
    "houseNumber": "לא ידוע",
    "containerTypes": [
      "glass"
    ],
    "rawDate": "05/05/2024",
    "date": "2024-05-04T21:00:00.000Z",
    "location": {
      "longitude": 34.93030756421341,
      "latitude": 32.67909664182766
    },
    "externalId": 1311
  },
  {
    "id": 2471,
    "city": "מ.א. חוף הכרמל",
    "street": "לא ידוע",
    "houseNumber": "לא ידוע",
    "containerTypes": [
      "glass"
    ],
    "rawDate": "05/05/2024",
    "date": "2024-05-04T21:00:00.000Z",
    "location": {
      "longitude": 34.93924754397778,
      "latitude": 32.682616719064
    },
    "externalId": 2471
  },
  {
    "id": 3074,
    "city": "מ.א. חוף הכרמל",
    "street": "לא ידוע",
    "houseNumber": "לא ידוע",
    "containerTypes": [
      "glass"
    ],
    "rawDate": "05/05/2024",
    "date": "2024-05-04T21:00:00.000Z",
    "location": {
      "longitude": 34.931417585607555,
      "latitude": 32.676846636563305
    },
    "externalId": 3074
  },
  {
    "id": 1310,
    "city": "עתלית",
    "street": "הנרקיסים",
    "houseNumber": "30",
    "containerTypes": [
      "glass"
    ],
    "rawDate": "05/05/2024",
    "date": "2024-05-04T21:00:00.000Z",
    "location": {
      "longitude": 34.93435752730083,
      "latitude": 32.6837166933382
    },
    "externalId": 1310
  },
  {
    "id": 1309,
    "city": "מ.א. חוף הכרמל",
    "street": "דרך האלון",
    "houseNumber": "19",
    "containerTypes": [
      "glass"
    ],
    "rawDate": "05/05/2024",
    "date": "2024-05-04T21:00:00.000Z",
    "location": {
      "longitude": 34.94093746169674,
      "latitude": 32.69196678163919
    },
    "externalId": 1309
  },
  {
    "id": 1312,
    "city": "מ.א. חוף הכרמל",
    "street": "לא ידוע",
    "houseNumber": "לא ידוע",
    "containerTypes": [
      "glass"
    ],
    "rawDate": "05/05/2024",
    "date": "2024-05-04T21:00:00.000Z",
    "location": {
      "longitude": 34.9428173667005,
      "latitude": 32.702756852818936
    },
    "externalId": 1312
  },
  {
    "id": 4972,
    "city": "3030000",
    "street": "נחל גלים",
    "houseNumber": "9",
    "containerTypes": [
      "glass"
    ],
    "rawDate": "05/05/2024",
    "date": "2024-05-04T21:00:00.000Z",
    "location": {
      "longitude": 34.94792737191856,
      "latitude": 32.70295688704833
    },
    "externalId": 4972
  },
  {
    "id": 4971,
    "city": "עתלית",
    "street": "נחל אורן",
    "houseNumber": "2",
    "containerTypes": [
      "glass"
    ],
    "rawDate": "05/05/2024",
    "date": "2024-05-04T21:00:00.000Z",
    "location": {
      "longitude": 34.949997358961625,
      "latitude": 32.70459690937938
    },
    "externalId": 4971
  },
  {
    "id": 1308,
    "city": "עתלית",
    "street": "לא ידוע",
    "houseNumber": "לא ידוע",
    "containerTypes": [
      "glass"
    ],
    "rawDate": "05/05/2024",
    "date": "2024-05-04T21:00:00.000Z",
    "location": {
      "longitude": 34.939537548867214,
      "latitude": 32.68222671893487
    },
    "externalId": 1308
  },
  {
    "id": 4975,
    "city": "עתלית",
    "street": "הלוחמים",
    "houseNumber": "96",
    "containerTypes": [
      "glass"
    ],
    "rawDate": "05/05/2024",
    "date": "2024-05-04T21:00:00.000Z",
    "location": {
      "longitude": 34.941487528827345,
      "latitude": 32.68462674472911
    },
    "externalId": 4975
  },
  {
    "id": 1340,
    "city": "גבע כרמל",
    "street": "דרך האלון",
    "houseNumber": "19",
    "containerTypes": [
      "glass"
    ],
    "rawDate": "05/05/2024",
    "date": "2024-05-04T21:00:00.000Z",
    "location": {
      "longitude": 34.95516774477921,
      "latitude": 32.66300671569694
    },
    "externalId": 1340
  },
  {
    "id": 1313,
    "city": "מ.א. חוף כרמל",
    "street": "לא ידוע",
    "houseNumber": "לא ידוע",
    "containerTypes": [
      "glass"
    ],
    "rawDate": "05/05/2024",
    "date": "2024-05-04T21:00:00.000Z",
    "location": {
      "longitude": 34.95713763748741,
      "latitude": 32.67505679400803
    },
    "externalId": 1313
  },
  {
    "id": 1307,
    "city": "מ.א. חוף הכרמל",
    "street": "התאנה",
    "houseNumber": "70",
    "containerTypes": [
      "glass"
    ],
    "rawDate": "05/05/2024",
    "date": "2024-05-04T21:00:00.000Z",
    "location": {
      "longitude": 34.94288750284021,
      "latitude": 32.68778677142128
    },
    "externalId": 1307
  },
  {
    "id": 4973,
    "city": "עתלית",
    "street": "חצרות האיכרים",
    "houseNumber": "6",
    "containerTypes": [
      "glass"
    ],
    "rawDate": "05/05/2024",
    "date": "2024-05-04T21:00:00.000Z",
    "location": {
      "longitude": 34.94453745249514,
      "latitude": 32.69349681298915
    },
    "externalId": 4973
  },
  {
    "id": 5394,
    "city": "עתלית",
    "street": "החרוב",
    "houseNumber": "62",
    "containerTypes": [
      "glass"
    ],
    "rawDate": "05/05/2024",
    "date": "2024-05-04T21:00:00.000Z",
    "location": {
      "longitude": 34.940267496763035,
      "latitude": 32.68806675590451
    },
    "externalId": 5394
  },
  {
    "id": 4974,
    "city": "עתלית",
    "street": "הסלע",
    "houseNumber": "21",
    "containerTypes": [
      "glass"
    ],
    "rawDate": "05/05/2024",
    "date": "2024-05-04T21:00:00.000Z",
    "location": {
      "longitude": 34.94073746073308,
      "latitude": 32.69205678126651
    },
    "externalId": 4974
  },
  {
    "id": 3068,
    "city": "מ.א. חוף הכרמל",
    "street": "לא ידוע",
    "houseNumber": "לא ידוע",
    "containerTypes": [
      "glass"
    ],
    "rawDate": "05/05/2024",
    "date": "2024-05-04T21:00:00.000Z",
    "location": {
      "longitude": 34.95244763595591,
      "latitude": 32.67452676086767
    },
    "externalId": 3068
  },
  {
    "id": 1304,
    "city": "/#ישראל",
    "street": "לא ידוע",
    "houseNumber": "לא ידוע",
    "containerTypes": [
      "glass"
    ],
    "rawDate": "05/05/2024",
    "date": "2024-05-04T21:00:00.000Z",
    "location": {
      "longitude": 34.95777763660009,
      "latitude": 32.675236799130396
    },
    "externalId": 1304
  },
  {
    "id": 1306,
    "city": "מ.א. חוף הכרמל",
    "street": "לא ידוע",
    "houseNumber": "לא ידוע",
    "containerTypes": [
      "glass"
    ],
    "rawDate": "05/05/2024",
    "date": "2024-05-04T21:00:00.000Z",
    "location": {
      "longitude": 34.94477744689116,
      "latitude": 32.69418681898991
    },
    "externalId": 1306
  },
  {
    "id": 4270,
    "city": "מ.א. חוף הכרמל",
    "street": "לא ידוע",
    "houseNumber": "לא ידוע",
    "containerTypes": [
      "glass"
    ],
    "rawDate": "05/05/2024",
    "date": "2024-05-04T21:00:00.000Z",
    "location": {
      "longitude": 34.94601745259303,
      "latitude": 32.69373682412615
    },
    "externalId": 4270
  },
  {
    "id": 1305,
    "city": "מ.א. חוף כרמל",
    "street": "לא ידוע",
    "houseNumber": "לא ידוע",
    "containerTypes": [
      "glass"
    ],
    "rawDate": "05/05/2024",
    "date": "2024-05-04T21:00:00.000Z",
    "location": {
      "longitude": 34.95026763226425,
      "latitude": 32.67464674697816
    },
    "externalId": 1305
  },
  {
    "id": 4269,
    "city": "עתלית",
    "street": "שלדג",
    "houseNumber": "7",
    "containerTypes": [
      "glass"
    ],
    "rawDate": "05/05/2024",
    "date": "2024-05-04T21:00:00.000Z",
    "location": {
      "longitude": 34.942937367613986,
      "latitude": 32.702686853626695
    },
    "externalId": 4269
  },
  {
    "id": 1343,
    "city": "עופר",
    "street": "",
    "houseNumber": "77",
    "containerTypes": [
      "glass"
    ],
    "rawDate": "05/05/2024",
    "date": "2024-05-04T21:00:00.000Z",
    "location": {
      "longitude": 34.98076814385784,
      "latitude": 32.62288666165951
    },
    "externalId": 1343
  },
  {
    "id": 5624,
    "city": "בת שלמה",
    "street": "הרימון",
    "houseNumber": "12",
    "containerTypes": [
      "glass"
    ],
    "rawDate": "05/05/2024",
    "date": "2024-05-04T21:00:00.000Z",
    "location": {
      "longitude": 35.00429835642004,
      "latitude": 32.60305670634071
    },
    "externalId": 5624
  },
  {
    "id": 1345,
    "city": "כרם מהר\"ל",
    "street": "",
    "houseNumber": "109",
    "containerTypes": [
      "glass"
    ],
    "rawDate": "05/05/2024",
    "date": "2024-05-04T21:00:00.000Z",
    "location": {
      "longitude": 34.98948795875591,
      "latitude": 32.644606837767896
    },
    "externalId": 1345
  },
  {
    "id": 3087,
    "city": "מ.א. חוף הכרמל",
    "street": "לא ידוע",
    "houseNumber": "לא ידוע",
    "containerTypes": [
      "glass"
    ],
    "rawDate": "05/05/2024",
    "date": "2024-05-04T21:00:00.000Z",
    "location": {
      "longitude": 34.891099186800524,
      "latitude": 32.49404537233184
    },
    "externalId": 3087
  },